id,dateAdded,dateUpdated,address,categories,primaryCategories,city,country,keys,latitude,longitude,menuPageURL,menus.amountMax,menus.amountMin,menus.currency,menus.dateSeen,menus.description,menus.name,name,postalCode,priceRangeCurrency,priceRangeMin,priceRangeMax,State
AVz3Y-7h3D1zeR_xDAqm,2017-06-30T05:05:40Z,2019-05-01T15:43:09Z,4203 E Kiehl Ave,"Pizza,Restaurant,American restaurants,Pizza Place,Restaurants",Accommodation & Food Services,Sherwood,US,us/ar/sherwood/4203ekiehlave/-1051391616,34.8323,-92.1838,http://www.citysearch.com/profile/menu/1550074?singlePlatformId=shotgun-dans-pizza,7.98,7.98,USD,"2018-05-01T04:25:37.197Z,2018-04-16T04:36:02.356Z,2018-02-15T19:58:01.612Z,2018-04-02T23:29:46.353Z,2018-06-28T11:37:25.942Z",,Cheese Pizza,Shotgun Dans Pizza,72120,USD,0,25,AR
AVwcsjkFIN2L1WUfn4dB,2015-10-20T03:10:24Z,2019-04-30T18:38:15Z,1253 Jacklin Rd,"Pizza,Restaurant,Karaoke,Pizza Place,Restaurants",Accommodation & Food Services,Milpitas,US,us/ca/milpitas/1253jacklinrd/-66718653,37.4478,-121.8878,,9.2,9.2,USD,2018-01-19T05:14:47.623Z,,Cheese Pizza,Pizza Box,95035,USD,0,25,CA
AVwcoEiNIN2L1WUfnF36,2016-03-28T05:33:02Z,2019-04-30T15:36:38Z,2221 Browning Dr,"Italian Restaurant,Pizza Place,Italian Restaurant and Pizza Place",Accommodation & Food Services,Arlington,US,us/tx/arlington/2221browningdr/1023837469,32.707464,-97.085036,,6.95,6.95,USD,"2018-01-23T08:55:19.422Z,2018-01-26T18:16:36.204Z,2018-01-26T11:14:25.226Z,2018-01-25T10:08:29.860Z,2018-01-15T14:43:38.956Z,2017-10-28T23:15:00.000Z,2016-03-28T05:33:00.000Z,2016-06-08T16:18:00.000Z",,Cheese Pizza,Italy Pizza Pasta Subs,76010,USD,25,40,TX
AVweM6RuIN2L1WUf24PG,2015-10-23T01:27:28Z,2019-04-30T15:35:03Z,150 N Pantano Rd,Pizza Place,Accommodation & Food Services,Tucson,US,us/az/tucson/150npantanord/-874863116,32.223015,-110.822913,,5.99,5.99,USD,2015-10-23T01:27:00.000Z,,Cheese Pizza,Hungry Howies Pizza,85710,USD,25,40,AZ
AVwd95bD_7pvs4fz-2aw,2016-03-23T04:04:45Z,2019-04-30T09:33:08Z,3348 Genesee St,Pizza Place,Accommodation & Food Services,Buffalo,US,us/ny/buffalo/3348geneseest/1670701308,42.925755,-78.761238,,22.49,22.49,USD,"2016-03-23T04:05:00.000Z,2016-04-03T00:32:00.000Z",Sheet,Cheese Pizza,Macys Place Pizzeria,14225,USD,0,25,NY
AVwd95bD_7pvs4fz-2aw,2016-03-23T04:04:45Z,2019-04-30T09:33:08Z,3348 Genesee St,Pizza Place,Accommodation & Food Services,Buffalo,US,us/ny/buffalo/3348geneseest/1670701308,42.925755,-78.761238,,22.49,22.49,USD,2017-10-28T06:19:00.000Z,,Cheese Pizza,Macys Place Pizzeria,14225,USD,0,25,NY
AVwd95bD_7pvs4fz-2aw,2016-03-23T04:04:45Z,2019-04-30T09:33:08Z,3348 Genesee St,Pizza Place,Accommodation & Food Services,Buffalo,US,us/ny/buffalo/3348geneseest/1670701308,42.925755,-78.761238,,4.99,4.99,USD,2017-10-28T06:19:00.000Z,,Cheese Pizza,Macys Place Pizzeria,14225,USD,0,25,NY
AVwdCZyb_7pvs4fz1mSG,2015-10-23T03:24:54Z,2019-04-28T16:45:28Z,2345 E Centennial Pkwy,"Restaurant,Pizza Place",Accommodation & Food Services,North Las Vegas,US,us/nv/northlasvegas/2345ecentennialpkwy/236494560,36.274975,-115.11845,,11.99,11.99,USD,"2018-01-19T10:35:16.545Z,2018-01-21T20:21:25.404Z,2018-01-20T02:59:30.410Z,2018-01-16T22:12:40.923Z,2017-12-19T15:32:27.869Z,2017-12-10T12:43:50.685Z,2017-10-29T00:47:04.526Z,2017-10-07T16:17:51.376Z",,Cheese Pizza,DeLucias Pizzeria,89081,USD,0,25,NV
AVwdCZyb_7pvs4fz1mSG,2015-10-23T03:24:54Z,2019-04-28T16:45:28Z,2345 E Centennial Pkwy,"Restaurant,Pizza Place",Accommodation & Food Services,North Las Vegas,US,us/nv/northlasvegas/2345ecentennialpkwy/236494560,36.274975,-115.11845,,9.99,9.99,USD,"2018-01-19T10:35:16.543Z,2018-01-21T20:21:25.403Z,2018-01-20T02:59:30.408Z,2018-01-16T22:12:40.919Z,2017-12-19T15:32:27.868Z,2017-12-10T12:43:50.684Z,2017-10-29T00:47:04.524Z,2017-10-07T16:17:51.373Z",,Cheese Pizza,DeLucias Pizzeria,89081,USD,0,25,NV
AVzA1Vq_LD2H7whiWFMp,2017-06-19T14:50:26Z,2019-04-26T12:28:42Z,154 Church Steet,Pizza Place,Accommodation & Food Services,New York,US,us/ny/newyork/154churchsteet/831411592,40.71499,-74.00785,,16,16,USD,"2018-02-11T07:26:42.674Z,2018-01-18T15:40:23.887Z,2018-01-26T09:54:06.344Z,2018-01-26T07:17:06.507Z,2018-01-27T01:46:37.417Z,2018-01-12T07:30:15.220Z,2017-12-17T04:36:05.033Z,2017-12-08T23:12:04.423Z,2017-10-27T13:37:50.386Z",,Cheese Pizza,Dona Bella Pizza,10007,USD,0,25,NY
AVwc_FJmkufWRAb51GkW,2016-03-26T04:10:16Z,2019-04-26T09:18:31Z,1540 Johnston St,"Pizza,Restaurant,American restaurants,Pizza Place,Restaurants",Accommodation & Food Services,Lafayette,US,us/la/lafayette/1540johnstonst/977489551,30.213724,-92.02302,,5.99,5.99,USD,"2018-01-18T17:43:25.887Z,2018-01-19T06:19:35.702Z,2018-01-18T14:53:59.058Z,2018-01-18T17:31:24.284Z,2017-10-30T00:20:45.281Z,2016-03-26T04:10:16Z",,Cheese Pizza,Bisbano's Pizza Parlor,70503,USD,0,25,LA
AVwdXfmMIN2L1WUfvEuH,2015-10-20T03:49:38Z,2019-04-25T10:18:20Z,829 N Douglas St,"Restaurant,Pizza Place",Accommodation & Food Services,El Segundo,US,us/ca/elsegundo/829ndouglasst/-695527346,33.927667,-118.383589,,7.99,7.99,USD,2018-05-07T06:38:49.629Z,classic cheese,Cheese Pizza,zpizza,90245,USD,25,40,CA
AVwdOuumByjofQCxm4xE,2015-10-24T00:16:40Z,2019-04-25T10:12:25Z,133 Browns Way Rd,"Pizza,Restaurant,Pizza Place Midlothian,Pizza Place,Restaurants,Italian Restaurants",Accommodation & Food Services,Midlothian,US,us/va/midlothian/133brownswayrd/89276803,37.501901,-77.638267,http://www.citysearch.com/profile/menu/44129236?singlePlatformId=a-new-york-slice,2.15,2.15,USD,"2018-01-19T21:20:22.086Z,2018-01-19T10:51:43.248Z,2018-01-19T04:07:48.701Z,2018-01-18T14:59:35.442Z,2018-01-12T13:19:46.621Z,2017-12-17T08:07:00.000Z,2016-04-01T06:45:00.000Z",,Cheese Pizza,A New York Slice,23114,USD,0,25,VA
AVwcptwJIN2L1WUfnYma,2016-04-02T05:34:14Z,2019-04-25T10:05:05Z,5211 5th Ave,"Cheesesteaks,Pizza,Restaurant,Italian,Pizza Place",Accommodation & Food Services,Brooklyn,US,us/ny/brooklyn/52115thave/173603987,40.6437,-74.01174,http://www.menupages.com/restaurants/royal-kings-pizza/menu,14,14,USD,"2018-05-07T10:10:40.420Z,2018-05-26T11:58:40.511Z,2018-03-31T02:14:35.837Z",,Cheese Pizza,Royal Kings Pizza,11220,USD,0,25,NY
AVwcptwJIN2L1WUfnYma,2016-04-02T05:34:14Z,2019-04-25T10:05:05Z,5211 5th Ave,"Cheesesteaks,Pizza,Restaurant,Italian,Pizza Place",Accommodation & Food Services,Brooklyn,US,us/ny/brooklyn/52115thave/173603987,40.6437,-74.01174,http://www.menupages.com/restaurants/royal-kings-pizza/menu,13,13,USD,"2018-01-20T17:16:00.022Z,2017-12-10T12:18:27.290Z,2016-04-02T05:34:14Z,2016-10-26T22:41:43Z",,Cheese Pizza,Royal Kings Pizza,11220,USD,0,25,NY
AVwchpG6ByjofQCxfM1R,2016-04-02T05:00:52Z,2019-04-23T09:39:43Z,5 S Dubuque St,"Pizza,Restaurant,Pizza Place,Restaurants",Accommodation & Food Services,Iowa City,US,us/ia/iowacity/5sdubuquest/937374038,41.660914,-91.533046,http://www.citysearch.com/profile/menu/33704880?singlePlatformId=pizza-on-dubuque,7.5,7.5,USD,"2018-02-15T19:13:52.904Z,2018-01-31T06:25:00.782Z",,Cheese Pizza,Pizza On Dubuque,52240,USD,0,25,IA
AVwdJIVqkufWRAb52udn,2016-06-08T16:28:08Z,2019-04-22T09:49:14Z,1846 S 12th St,Pizza Place,Accommodation & Food Services,Philadelphia,US,us/pa/philadelphia/1846s12thst/516514185,39.926386,-75.165476,,7,7,USD,"2018-02-26T16:05:26.878Z,2018-01-21T08:14:16.992Z,2018-01-20T23:56:11.002Z,2018-01-22T20:11:11.712Z,2018-01-13T14:23:52.366Z,2017-12-17T23:26:31.555Z,2016-06-08T16:28:08Z,2016-06-08T16:28:16Z",,Cheese Pizza,Key Pizza,19148,USD,0,25,PA
AVwc7nchByjofQCxjwVO,2016-04-05T03:14:00Z,2019-04-20T06:25:02Z,110 N Main St,"Pizza,Restaurant,Pizza Place,Restaurants",Accommodation & Food Services,Mount Pleasant,US,us/mi/mountpleasant/110nmainst/2024461158,43.604819,-84.776472,http://www.citysearch.com/profile/menu/5353052?singlePlatformId=pisanellos-pizza,6.27,6.27,USD,"2018-04-03T00:06:32.570Z,2018-02-07T04:49:13.636Z,2018-05-11T09:27:09.510Z",,Cheese Pizza,Pisanellos Pizza,48858,USD,0,25,MI
AVzsxs4MLD2H7whiX1yU,2017-06-28T03:37:50Z,2019-04-19T12:33:30Z,223 W Mill St,"Pizza,Restaurant,Italian restaurants,Pizza Place,Restaurants",Accommodation & Food Services,Waterloo,US,us/il/waterloo/223wmillst/795778821,38.3358,-90.1531,http://www.citysearch.com/profile/menu/36842295?singlePlatformId=papa-vitos-pizza-2,6.99,6.99,USD,"2018-01-18T15:45:20.943Z,2018-01-19T18:06:45.785Z,2018-01-18T15:09:07.489Z",,Cheese Pizza,Papa Vito's Pizza,62298,USD,0,25,IL
AVzA3XZR-gnIPe8DSd1g,2017-06-19T14:59:18Z,2019-04-15T07:21:24Z,616 Amsterdam Ave,"Restaurant,Pizza Place",Accommodation & Food Services,New York,US,us/ny/newyork/616amsterdamave/14468463,40.79013,-73.973197,,7.5,7.5,USD,"2018-05-04T15:54:02.900Z,2018-02-10T08:00:40.264Z,2018-05-14T18:48:35.782Z,2018-05-26T16:58:39.817Z,2018-04-08T13:35:02.609Z",,Cheese Pizza,Famous Amadeus Pizza,10024,USD,0,25,NY
AVyoBb_Ml8hL2jjQySoP,2017-06-14T19:12:48Z,2019-04-15T07:09:13Z,575 Seneca Ave,"Pizza,Restaurant,Italian,Pizza Place,Restaurants",Accommodation & Food Services,Ridgewood,US,us/ny/ridgewood/575senecaave/-1205192948,40.704542,-73.910649,http://www.singlepage.com/carlos-pizza-4,11.75,11.75,USD,"2018-04-30T13:10:33.268Z,2018-02-10T07:55:41.418Z,2018-01-29T19:11:05.030Z,2018-05-13T02:33:21.306Z,2018-06-17T13:58:33.408Z",,Cheese Pizza,Carlos Pizza,11385,USD,0,25,NY
AVzA-pVeFcQ3k02bBalo,2017-06-19T15:31:06Z,2019-04-15T07:09:13Z,289 W Main St,"Italian Restaurant,Pizza Place",Accommodation & Food Services,Leola,US,us/pa/leola/289wmainst/1100633463,40.085942,-76.20824,,8.95,8.95,USD,"2018-02-26T12:33:14.305Z,2018-01-20T18:03:43.538Z,2018-01-27T18:10:19.899Z,2018-01-19T08:14:35.160Z,2018-01-11T14:25:13.286Z,2017-12-16T15:36:16.897Z,2017-12-07T16:35:02.536Z,2017-10-22T02:52:41.107Z,2017-10-26T10:20:28.242Z",,Cheese Pizza,Rosarios Pronto Pizza Italian Restaurant,17540,USD,0,25,PA
AVzA-pVeFcQ3k02bBalo,2017-06-19T15:31:06Z,2019-04-15T07:09:13Z,289 W Main St,"Italian Restaurant,Pizza Place",Accommodation & Food Services,Leola,US,us/pa/leola/289wmainst/1100633463,40.085942,-76.20824,,7.5,7.5,USD,"2018-02-26T12:33:14.302Z,2018-01-20T18:03:43.533Z,2018-01-27T18:10:19.893Z,2018-01-19T08:14:35.154Z,2018-01-11T14:25:13.279Z,2017-12-16T15:36:16.893Z,2017-12-07T16:35:02.533Z,2017-10-22T02:52:41.105Z,2017-10-26T10:20:28.237Z",,Cheese Pizza,Rosarios Pronto Pizza Italian Restaurant,17540,USD,0,25,PA
AVwd5i6yByjofQCxtena,2016-03-31T02:30:20Z,2019-04-15T07:08:39Z,3938 S Zarzamora St,"Pizza,Restaurant,Pizza Place Palm Heights,Pizza Place,Restaurants",Accommodation & Food Services,San Antonio,US,us/tx/sanantonio/3938szarzamorast/-1026443824,29.385755,-98.532876,,9.99,9.99,USD,"2018-04-14T07:15:11.836Z,2018-04-02T23:23:01.638Z,2018-06-04T13:38:11.135Z,2018-06-17T19:20:02.105Z,2018-01-29T21:59:07.172Z,2018-05-11T09:15:34.209Z,2018-04-26T20:36:10.842Z,2018-02-17T00:41:56.820Z",,Cheese Pizza,Alamo Pizza,78225,USD,0,25,TX
AV4rAwqWRxPSIh2RexIM,2017-08-28T22:42:53Z,2019-04-15T07:06:50Z,407 N Enola Rd,Pizza Place,Accommodation & Food Services,Enola,US,us/pa/enola/407nenolard/-58112493,40.299281,-76.929266,,6.5,6.5,USD,"2017-12-21T02:21:52.531Z,2018-01-18T22:00:28.919Z,2017-12-11T18:28:50.721Z,2018-01-19T04:19:31.312Z,2018-04-06T02:25:36.826Z,2018-03-05T08:30:19.373Z,2018-01-19T04:30:52.360Z",,Cheese Pizza,Als Pizza Subs,17025,USD,0,25,PA
AVwd43zB_7pvs4fz-J-O,2016-04-01T06:55:30Z,2019-04-15T07:04:14Z,11865 E Colonial Dr,Pizza Place,Accommodation & Food Services,Orlando,US,us/fl/orlando/11865ecolonialdr/1819464538,28.568121,-81.20589,,8.95,8.95,USD,"2018-01-23T23:15:08.189Z,2018-01-14T15:33:01.510Z,2018-02-26T21:32:00.870Z,2016-04-01T06:55:30Z,2018-01-19T12:18:59.800Z,2018-01-23T15:13:52.449Z,2017-12-18T14:32:47.660Z,2017-12-09T21:41:20.413Z,2018-04-05T05:33:21.689Z",,Cheese Pizza,Goodfellas Pizza,32826,USD,0,25,FL
AVwcjGi8IN2L1WUfmLki,2016-03-28T05:59:46Z,2019-04-15T06:49:37Z,2490 W State Route 89A,"Pizza,Restaurant,Caterers,Pizza Place,Restaurants",Accommodation & Food Services,Sedona,US,us/az/sedona/2490wstateroute89a/1931569744,34.863223,-111.803756,http://www.yellowpages.com/sedona-az/mip/moon-dogs-pizza-12647466/menu?lid=12647466,10.5,10.5,USD,"2017-12-20T00:12:00.000Z,2018-03-04T01:48:24.592Z,2017-12-20T00:11:38.606Z,2018-02-23T05:16:28.082Z,2018-01-18T18:20:11.587Z,2017-12-10T19:28:00.000Z,2018-04-05T16:24:53.125Z,2018-01-17T11:51:49.067Z",,Cheese Pizza,Moon Dogs Pizza,86336,USD,0,25,AZ
AVwco0fVByjofQCxghm_,2015-10-23T02:56:25Z,2019-04-15T06:49:35Z,1265 S State St,Pizza Place,Accommodation & Food Services,Hemet,US,us/ca/hemet/1265sstatest/643688721,33.72854,-116.973359,,12,12,USD,"2016-04-01T07:07:48Z,2015-10-23T02:56:25Z",12 slice,Cheese Pizza,The Big Cheese Pizza Co,92543,USD,0,25,CA
AWEKUAPb3-Khe5l_eb_-,2018-01-18T17:23:49Z,2019-04-15T06:38:43Z,219 N Main St Ste B,"Pizza,Take Out Restaurants,Pizza Place,Restaurants",Accommodation & Food Services,Crown Point,US,us/in/crownpoint/219nmainststeb/572757474,41.421409,-87.365079,,7,7,USD,"2018-01-19T11:29:39.600Z,2018-01-18T10:34:32.406Z,2018-01-18T15:24:18.479Z",,Cheese Pizza,Papa Johns Pizza,46307,USD,0,25,IN
AWEHt_r9IxWefVJwwUiR,2018-01-18T05:19:19Z,2019-04-15T06:23:16Z,1918 201st Pl SE,"Burger Joint,Pizza Place",Accommodation & Food Services,Bothell,US,us/wa/bothell/1918201stplse/745647468,47.814792,-122.207248,,5,5,USD,"2018-04-04T21:26:06.258Z,2018-01-22T17:46:27.472Z,2018-01-14T14:49:58.489Z",,Cheese Pizza,The Rock Wood Fired Pizza,98012,USD,25,40,WA
AVyoBfNhYuCoGd6wM5za,2017-06-14T19:13:01Z,2019-04-15T06:22:52Z,3424 30th Ave,"Restaurant,Pizza Place",Accommodation & Food Services,Astoria,US,us/ny/astoria/342430thave/-565069298,40.765323,-73.918233,,12,12,USD,"2018-02-17T04:57:17.756Z,2018-01-22T09:01:45.765Z,2018-01-25T20:57:24.156Z,2018-01-21T23:55:38.828Z,2017-12-18T01:44:47.924Z,2017-12-09T11:42:32.027Z,2017-10-28T15:52:37.401Z",,Cheese Pizza,Grand Avenue Pizza,11103,USD,0,25,NY
AVwdNFxqByjofQCxmm8Q,2015-10-23T02:01:33Z,2019-04-15T06:13:48Z,238 Saw Mill River Rd,Pizza Place,Accommodation & Food Services,Millwood,US,us/ny/millwood/238sawmillriverrd/735034309,41.18839,-73.802983,,13.95,13.95,USD,"2018-01-23T03:52:23.456Z,2018-01-23T03:52:23.518Z,2018-01-17T17:26:46.352Z,2018-01-17T17:26:46.376Z",,Cheese Pizza,Tonino Pizzeria Contorni,10546,USD,0,25,NY
AVzdAmzL3D1zeR_xB5dX,2017-06-25T02:09:02Z,2019-04-15T06:10:48Z,529 2nd St,"Pizza,Restaurant,Pizza Place,Restaurants",Accommodation & Food Services,Hudson,US,us/wi/hudson/5292ndst/-407033482,44.975726,-92.757675,,8.5,8.5,USD,"2018-02-18T21:22:31.427Z,2018-01-18T17:31:57.463Z,2018-01-19T00:22:45.363Z,2018-01-18T17:55:11.381Z,2017-12-21T10:21:22.159Z,2017-12-11T23:58:57.191Z",,Cheese Pizza,Dough Boys Pizza,54016,USD,0,25,WI
AVwefwKxIN2L1WUf5el3,2016-03-29T05:07:34Z,2019-04-15T06:08:51Z,4131 NW 16th Blvd,Pizza Place,Accommodation & Food Services,Gainesville,US,us/fl/gainesville/4131nw16thblvd/-1740778871,29.673127,-82.388085,,14.95,14.95,USD,"2018-01-19T05:43:06.587Z,2018-01-19T06:35:18.425Z,2018-01-19T18:34:02.003Z,2018-01-19T16:38:13.111Z,2018-01-09T22:40:43.852Z,2017-12-14T21:29:10.341Z,2017-12-06T05:21:23.336Z",,Cheese Pizza,Leonardos Pizza,32605,USD,25,40,FL
AVwefwKxIN2L1WUf5el3,2016-03-29T05:07:34Z,2019-04-15T06:08:51Z,4131 NW 16th Blvd,Pizza Place,Accommodation & Food Services,Gainesville,US,us/fl/gainesville/4131nw16thblvd/-1740778871,29.673127,-82.388085,,11.45,11.45,USD,"2018-01-19T05:43:06.587Z,2018-01-19T06:35:18.423Z,2018-01-19T18:34:02.002Z,2018-01-19T16:38:13.110Z,2018-01-09T22:40:43.851Z,2017-12-14T21:29:10.341Z,2017-12-06T05:21:23.335Z",,Cheese Pizza,Leonardos Pizza,32605,USD,25,40,FL
AVwefwKxIN2L1WUf5el3,2016-03-29T05:07:34Z,2019-04-15T06:08:51Z,4131 NW 16th Blvd,Pizza Place,Accommodation & Food Services,Gainesville,US,us/fl/gainesville/4131nw16thblvd/-1740778871,29.673127,-82.388085,,17.35,17.35,USD,"2018-01-19T05:43:06.587Z,2018-01-19T06:35:18.424Z,2018-01-19T18:34:02.002Z,2018-01-19T16:38:13.111Z,2018-01-09T22:40:43.851Z,2017-12-14T21:29:10.341Z,2017-12-06T05:21:23.336Z,2016-03-29T05:07:34Z",,Cheese Pizza,Leonardos Pizza,32605,USD,25,40,FL
AVzA3CVE-gnIPe8DSdsE,2017-06-19T14:57:51Z,2019-04-15T06:03:15Z,95 Beekman Ave,Pizza Place,Accommodation & Food Services,Tarrytown,US,us/ny/tarrytown/95beekmanave/-1907507678,41.084046,-73.863171,,13.95,13.95,USD,"2018-01-20T00:57:39.025Z,2017-12-17T22:51:00.000Z,2017-12-09T00:08:00.000Z,2017-10-27T14:27:00.000Z",,Cheese Pizza,Hollywood North Pizza,10591,USD,0,25,NY
AVwclvN5kufWRAb5w2wR,2016-03-21T00:04:58Z,2019-04-15T06:01:53Z,1010 E Grand River Ave,Pizza Place,Accommodation & Food Services,East Lansing,US,us/mi/eastlansing/1010egrandriverave/1425845217,42.731341,-84.470843,,11.49,11.49,USD,"2018-02-27T12:00:26.555Z,2018-01-21T16:03:59.647Z,2018-01-27T21:14:08.115Z,2018-01-18T19:47:53.681Z,2018-01-18T16:42:54.552Z,2018-01-15T18:47:32.442Z,2017-12-19T05:14:36.490Z,2017-12-10T04:05:48.106Z,2017-10-22T02:50:06.242Z",,Cheese Pizza,Georgios Pizza,48823,USD,0,25,MI
AVwclvN5kufWRAb5w2wR,2016-03-21T00:04:58Z,2019-04-15T06:01:53Z,1010 E Grand River Ave,Pizza Place,Accommodation & Food Services,East Lansing,US,us/mi/eastlansing/1010egrandriverave/1425845217,42.731341,-84.470843,,11.99,11.99,USD,"2016-06-20T17:22:11Z,2016-03-21T00:04:58Z",,Cheese Pizza,Georgios Pizza,48823,USD,0,25,MI
AVwc5Ova_7pvs4fz0GWq,2016-03-21T00:10:41Z,2019-04-15T06:00:48Z,2625 Keith St NW,"Italian Restaurant,Pizza Place and Italian Restaurant,Pizza Place",Accommodation & Food Services,Cleveland,US,us/tn/cleveland/2625keithstnw/-2071451315,35.18558,-84.872179,,14.26,14.26,USD,"2018-01-18T15:58:00.990Z,2018-01-19T15:06:58.673Z,2018-01-18T16:05:43.608Z,2018-01-19T14:02:00.265Z",,Cheese Pizza,Gabriels,37312,USD,0,25,TN
AVwc5Ova_7pvs4fz0GWq,2016-03-21T00:10:41Z,2019-04-15T06:00:48Z,2625 Keith St NW,"Italian Restaurant,Pizza Place and Italian Restaurant,Pizza Place",Accommodation & Food Services,Cleveland,US,us/tn/cleveland/2625keithstnw/-2071451315,35.18558,-84.872179,,21.51,21.51,USD,"2018-01-18T15:58:00.991Z,2018-01-19T15:06:58.674Z,2018-01-18T16:05:43.609Z,2018-01-19T14:02:00.265Z,2016-03-21T00:10:41Z",,Cheese Pizza,Gabriels,37312,USD,0,25,TN
AVweXKfX_7pvs4fzCUQC,2016-05-10T06:51:23Z,2019-04-15T06:00:03Z,1 Wall St,Pizza Place,Accommodation & Food Services,Kingston,US,us/ny/kingston/1wallst/-1598023092,41.924422,-74.013289,,11,11,USD,"2018-01-18T18:41:31.805Z,2016-05-10T06:51:00.000Z,2018-04-05T23:22:13.248Z,2018-01-19T15:37:15.654Z",,Cheese Pizza,Kings Pizza,12401,USD,0,25,NY
AVweXKfX_7pvs4fzCUQC,2016-05-10T06:51:23Z,2019-04-15T06:00:03Z,1 Wall St,Pizza Place,Accommodation & Food Services,Kingston,US,us/ny/kingston/1wallst/-1598023092,41.924422,-74.013289,,5.5,5.5,USD,"2018-01-18T18:41:31.805Z,2018-04-05T23:22:13.248Z,2018-01-19T15:37:15.654Z",,Cheese Pizza,Kings Pizza,12401,USD,0,25,NY
AVzBBgtZ3D1zeR_xBExT,2017-06-19T15:43:37Z,2019-04-15T05:57:53Z,921 Washington Ave,"Pizza,Restaurant,Pizza Place",Accommodation & Food Services,Miami Beach,US,us/fl/miamibeach/921washingtonave/1225469315,25.779851,-80.132911,,10,10,USD,"2018-06-27T17:51:18.896Z,2018-01-30T18:41:49.490Z,2018-05-08T03:11:16.755Z,2018-04-09T07:33:53.740Z,2018-04-10T18:23:15.075Z,2018-03-31T02:16:40.294Z,2018-06-17T10:25:39.616Z",a blend of plum tomato sauce mixed with oregano fresh parmesan cheese ampamp topped with mozzarella cheese,Cheese Pizza,Groovys Pizza,33139,USD,0,25,FL
AVz5xpBzFcQ3k02bDe5J,2017-06-30T16:12:38Z,2019-04-15T05:57:30Z,203 N McDowell Blvd,Pizza Place,Accommodation & Food Services,Petaluma,US,us/ca/petaluma/203nmcdowellblvd/-758238715,38.250343,-122.628761,,11.9,11.9,USD,2018-02-23T05:16:00.673Z,,Cheese Pizza,Old Chicago Pizza,94954,USD,0,25,CA
AVwc5XABByjofQCxjXb_,2015-10-23T01:55:23Z,2019-04-15T05:56:41Z,1531 W Mission Rd,"Pizza,Restaurant,Pizza Place",Accommodation & Food Services,San Marcos,US,us/ca/sanmarcos/1531wmissionrd/-408326254,33.150886,-117.193875,http://www.singlepage.com/station-pizza-deli,6.5,6.5,USD,"2018-01-18T19:45:04.960Z,2016-03-26T04:08:00.000Z",,Cheese Pizza,Station Pizza Deli,92069,USD,0,25,CA
AVweb2cFByjofQCxyK3d,2015-10-24T00:01:42Z,2019-04-14T08:07:00Z,6052 William Flynn Hwy,Pizza Place,Accommodation & Food Services,Bakerstown,US,us/pa/bakerstown/6052williamflynnhwy/-2089451434,40.660149,-79.93373,,8,8,USD,"2018-02-18T16:31:07.554Z,2018-01-20T15:50:18.299Z,2018-01-18T20:26:31.292Z,2017-12-20T12:10:06.040Z,2017-12-11T07:29:50.951Z",,Cheese Pizza,Olive Peppers,15007,USD,0,25,PA
AVweb2cFByjofQCxyK3d,2015-10-24T00:01:42Z,2019-04-14T08:07:00Z,6052 William Flynn Hwy,Pizza Place,Accommodation & Food Services,Bakerstown,US,us/pa/bakerstown/6052williamflynnhwy/-2089451434,40.660149,-79.93373,,10,10,USD,"2018-02-18T16:31:07.556Z,2018-01-20T15:50:18.302Z,2018-01-18T20:26:31.294Z,2017-12-20T12:10:06.040Z,2017-12-11T07:29:50.953Z,2015-10-24T00:01:42Z",,Cheese Pizza,Olive Peppers,15007,USD,0,25,PA
AVwdDysNByjofQCxlFUN,2016-03-31T02:30:28Z,2019-04-14T07:19:32Z,1356 E Main St,Pizza Place,Accommodation & Food Services,Shrub Oak,US,us/ny/shruboak/1356emainst/-1573044853,41.327322,-73.83725,,14,14,USD,"2018-02-23T11:57:31.726Z,2018-02-18T18:32:07.828Z,2018-01-19T10:40:16.417Z,2017-12-20T16:54:35.932Z,2017-12-11T09:02:39.491Z,2016-03-31T02:30:28Z,2016-05-09T23:26:47Z",,Cheese Pizza,Francescas Pizza,10588,USD,0,25,NY
AVwc0YsK_7pvs4fzzSvM,2015-09-13T02:53:02Z,2019-04-14T07:18:28Z,148 Main St,"Restaurant,Pizza Place",Accommodation & Food Services,Seal Beach,US,us/ca/sealbeach/148mainst/-695527346,33.741276,-118.104753,,2.75,2.75,USD,"2018-02-12T19:07:43.771Z,2018-01-19T01:37:35.483Z,2018-01-14T18:40:46.710Z,2018-01-20T01:36:17.192Z,2015-10-23T03:11:25Z",,Cheese Pizza,zpizza,90740,USD,0,25,CA
AVwcgpH0_7pvs4fzv281,2016-04-05T02:36:09Z,2019-04-14T06:22:10Z,6050 Gull Rd,"Restaurant,Spa,Pizza Place",Accommodation & Food Services,Kalamazoo,US,us/mi/kalamazoo/6050gullrd/-1147771441,42.320011,-85.52716,,17.25,17.25,USD,"2018-02-17T06:53:43.919Z,2018-01-18T15:26:24.273Z,2018-01-19T12:07:59.209Z,2018-01-21T01:31:20.036Z,2018-01-13T20:23:11.905Z,2017-12-18T02:27:43.908Z,2017-12-09T01:28:25.409Z,2016-04-05T02:36:09Z,2016-05-05T00:33:22Z",,Cheese Pizza,Jaspares Pizza Fine Italian Food,49048,USD,0,25,MI
AVwdQOBNIN2L1WUft23V,2016-01-05T23:50:59Z,2019-04-14T06:19:27Z,151 Calhoun St,"Pizza Place Radcliffeborough,Pizza Place",Accommodation & Food Services,Charleston,US,us/sc/charleston/151calhounst/-1097774880,32.785633,-79.936788,,15.99,15.99,USD,"2017-10-26T10:49:00.000Z,2018-01-11T14:49:27.151Z,2018-01-20T03:27:09.238Z,2018-01-19T17:46:25.756Z,2018-01-19T00:35:43.143Z,2017-12-16T15:55:00.000Z,2018-03-31T02:12:42.230Z",,Cheese Pizza,Sabatinos NYC Pizza,29401,USD,0,25,SC
AVwcnkKN_7pvs4fzxHf-,2016-03-21T00:07:27Z,2019-04-14T06:15:41Z,202 W Dickson St,"Pizza,Restaurant,Karaoke,Pizza Place,Restaurants",Accommodation & Food Services,Fayetteville,US,us/ar/fayetteville/202wdicksonst/-137215830,36.066691,-94.161982,,3.29,3.29,USD,"2018-05-13T11:45:18.515Z,2018-05-19T20:19:04.855Z,2018-06-14T08:45:28.502Z,2018-05-06T02:27:52.742Z,2018-06-17T17:20:03.571Z,2018-05-01T04:31:02.052Z,2018-06-24T15:42:52.829Z",Pizza sauce and fresh mozzarella cheese 6ampquot,Cheese Pizza,US Pizza Co,72701,USD,0,25,AR
AVwcke8NkufWRAb5wooA,2016-03-11T19:36:22Z,2019-04-14T05:30:14Z,40 E Central Ave,Pizza Place,Accommodation & Food Services,Springboro,US,us/oh/springboro/40ecentralave/-965651577,39.556702,-84.231999,,14.99,2.29,USD,"2018-01-18T22:00:54.141Z,2016-05-05T00:32:19Z",,Cheese Pizza,Carmelas Pizzeria Springboro,45066,USD,0,25,OH
AVwdQtv3ByjofQCxnPa1,2016-06-05T20:01:07Z,2019-04-12T14:03:19Z,13976 W Beloit Rd,Pizza Place,Accommodation & Food Services,New Berlin,US,us/wi/newberlin/13976wbeloitrd/-910292621,42.955455,-88.08882,,12.19,12.19,USD,"2017-12-10T03:29:10.772Z,2018-01-19T13:08:30.665Z,2018-01-19T15:19:46.514Z,2017-12-19T01:33:15.647Z,2017-10-28T13:31:51.919Z,2017-10-07T15:49:11.259Z,2018-01-17T09:27:11.191Z,2016-06-05T20:01:07Z,2018-04-04T21:14:51.008Z",,Cheese Pizza,Crossroads II,53151,USD,0,25,WI
AVwdUuPy_7pvs4fz4rKf,2016-06-08T16:09:11Z,2019-04-12T13:38:42Z,310 E Monroe St,Pizza Place,Accommodation & Food Services,Decatur,US,us/in/decatur/310emonroest/232974355,40.831812,-84.919766,,5.59,5.59,USD,"2018-01-18T20:21:16.429Z,2018-01-20T07:10:42.711Z,2018-01-19T07:09:00.194Z,2018-01-18T18:36:55.963Z",,Cheese Pizza,Pizza King Decatur,46733,USD,0,25,IN
AVzGArdoLD2H7whiWYnX,2017-06-20T14:58:05Z,2019-04-12T06:56:52Z,1 Galleria Pkwy SE,"Restaurant,Pizza Place,Restaurants",Accommodation & Food Services,Atlanta,US,us/ga/atlanta/1galleriapkwyse/1969042701,33.883979,-84.466753,,7.75,7.75,USD,"2018-01-23T15:50:22.185Z,2017-12-06T18:48:57.525Z,2018-02-10T10:16:30.386Z,2018-01-22T11:46:02.903Z,2018-01-20T18:21:29.076Z,2018-01-20T03:38:23.296Z,2018-04-07T05:01:34.865Z,2017-12-15T21:54:47.949Z,2017-10-17T05:42:52.534Z,2018-03-01T21:26:06.966Z,2018-01-10T19:53:41.405Z",,Cheese Pizza,Buckhead Pizza Co,30339,USD,25,40,GA
AVzGArdoLD2H7whiWYnX,2017-06-20T14:58:05Z,2019-04-12T06:56:52Z,1 Galleria Pkwy SE,"Restaurant,Pizza Place,Restaurants",Accommodation & Food Services,Atlanta,US,us/ga/atlanta/1galleriapkwyse/1969042701,33.883979,-84.466753,,16.75,16.75,USD,"2018-01-23T15:50:22.185Z,2017-12-06T18:48:57.525Z,2018-02-10T10:16:30.386Z,2018-01-22T11:46:02.903Z,2018-01-20T18:21:29.076Z,2018-04-07T05:01:34.865Z,2018-01-20T03:38:23.297Z,2017-12-15T21:54:47.949Z,2017-10-17T05:42:52.534Z,2018-03-01T21:26:06.966Z,2018-01-10T19:53:41.406Z",,Cheese Pizza,Buckhead Pizza Co,30339,USD,25,40,GA
AVwdmXiR_7pvs4fz7erH,2016-04-09T08:00:04Z,2019-04-12T06:46:59Z,3105 E Henrietta Rd,"Restaurant,Pizza Place",Accommodation & Food Services,Henrietta,US,us/ny/henrietta/3105ehenriettard/-321038080,43.059261,-77.612875,,6.99,6.99,USD,"2018-05-07T11:40:40.421Z,2018-04-25T18:31:53.096Z,2018-05-26T18:05:25.670Z,2018-04-13T03:25:38.010Z,2018-06-28T18:43:15.014Z",,Cheese Pizza,Guys Pizza Co,14467,USD,0,25,NY
AWEKZmPk3-Khe5l_ekay,2018-01-18T17:41:43Z,2019-04-12T06:13:58Z,4862 W Hildebrand Blvd,"Burger Joint,Pizza Place",Accommodation & Food Services,Kennewick,US,us/wa/kennewick/4862whildebrandblvd/745647468,46.178327,-119.186241,,5,5,USD,"2018-01-18T14:38:41.590Z,2018-01-19T09:02:29.452Z,2018-01-19T23:11:32.373Z,2018-01-18T17:43:45.504Z",,Cheese Pizza,The Rock Wood Fired Pizza,99338,USD,0,25,WA
AWEKZmPk3-Khe5l_ekay,2018-01-18T17:41:43Z,2019-04-12T06:13:58Z,4862 W Hildebrand Blvd,"Burger Joint,Pizza Place",Accommodation & Food Services,Kennewick,US,us/wa/kennewick/4862whildebrandblvd/745647468,46.178327,-119.186241,,9.95,9.95,USD,"2018-01-18T14:38:41.593Z,2018-01-19T09:02:29.456Z,2018-01-19T23:11:32.376Z,2018-01-18T17:43:45.507Z",,Cheese Pizza,The Rock Wood Fired Pizza,99338,USD,0,25,WA
AVwdU-3OIN2L1WUfupgx,2016-03-29T05:09:14Z,2019-04-10T09:34:13Z,32218 Woodward Ave,"Restaurant,Pizza Place",Accommodation & Food Services,Royal Oak,US,us/mi/royaloak/32218woodwardave/-1325405589,42.526497,-83.194039,,7.99,7.99,USD,"2018-01-28T03:50:27.788Z,2018-01-19T16:19:23.001Z,2018-01-21T18:19:04.874Z,2018-01-21T17:23:23.526Z,2018-01-28T00:27:37.940Z,2017-12-15T00:05:49.105Z,2017-12-06T08:47:09.896Z,2017-10-24T17:36:37.822Z,2016-03-29T05:09:14Z",,Cheese Pizza,Buddys Pizzeria,48073,USD,0,25,MI
AVzA9AxDFcQ3k02bBZL5,2017-06-19T15:23:58Z,2019-04-10T09:33:37Z,71 Division St,Pizza Place,Accommodation & Food Services,Troy,US,us/ny/troy/71divisionst/-778905544,42.72616,-73.690946,,8,8,USD,"2018-01-18T14:58:25.223Z,2017-12-19T22:12:00.000Z,2018-04-05T22:25:51.760Z,2017-12-10T21:08:00.000Z,2018-01-20T06:12:03.189Z,2018-02-18T18:42:13.813Z,2018-01-19T00:54:00.223Z,2018-04-09T19:20:06.618Z,2017-10-28T03:52:00.000Z",,Cheese Pizza,The Red Front,12180,USD,25,40,NY
AVwdSzh4_7pvs4fz4W3A,2015-10-23T04:06:41Z,2019-04-10T08:49:48Z,104 W Girard Ave,"Diner and Pizza Place,Diner,Pizza Place,Diner and Pizza Place Northern Liberties - Fishtown",Accommodation & Food Services,Philadelphia,US,us/pa/philadelphia/104wgirardave/486109426,39.968918,-75.136361,,7,7,USD,2016-03-22T04:13:00.000Z,,Cheese Pizza,Paradise Restaurant Pizzeria,19123,USD,0,25,PA
AVzA3XKeFcQ3k02bBYi_,2017-06-19T14:59:17Z,2019-04-10T08:44:26Z,936 2nd Ave,"Restaurant,Pizza Place",Accommodation & Food Services,New York,US,us/ny/newyork/9362ndave/978972883,40.754666,-73.968762,,13,13,USD,"2018-06-29T09:35:17.840Z,2018-06-28T20:00:55.271Z,2018-04-04T05:08:27.001Z",Our Homemade Tomato Sauce Topped with Mozzarella,Cheese Pizza,Abitinos Pizzeria,10022,USD,0,25,NY
AVzBFgxG-gnIPe8DSjb9,2017-06-19T16:01:06Z,2019-04-10T08:44:06Z,1424 Westover Ter,"Restaurant,Bar,Pizza Place",Accommodation & Food Services,Greensboro,US,us/nc/greensboro/1424westoverter/348880352,36.09164,-79.814653,,4.95,4.95,USD,"2018-01-18T22:42:01.954Z,2018-01-19T05:56:18.890Z,2018-01-19T23:25:01.902Z,2018-01-19T20:26:10.752Z,2018-01-09T22:48:19.151Z,2017-12-14T23:03:55.752Z,2017-12-06T05:35:48.717Z,2017-10-21T09:14:00.014Z,2017-10-22T08:58:48.635Z",,Cheese Pizza,Brixx Wood Fired Pizza,27408,USD,0,25,NC
AVwchvL2ByjofQCxfOBQ,2015-10-23T03:41:28Z,2019-04-10T08:42:41Z,3638 El Cajon Blvd,"Pizza Place Normal Heights,Pizza Place",Accommodation & Food Services,San Diego,US,us/ca/sandiego/3638elcajonblvd/-829286406,32.755574,-117.114869,,8.99,8.99,USD,"2018-01-25T16:36:20.500Z,2018-01-19T16:04:44.292Z,2018-01-20T02:29:54.485Z,2018-01-15T18:21:24.637Z,2016-03-24T10:22:00.000Z",,Cheese Pizza,Giant Pizza King,92104,USD,0,25,CA
AVwddbAikufWRAb56IMh,2015-12-02T18:19:26Z,2019-04-10T08:41:41Z,226 4th Ave,"Pizza Place Gowanus,Pizza Place",Accommodation & Food Services,Brooklyn,US,us/ny/brooklyn/2264thave/-1673663891,40.677378,-73.983129,,12,12,USD,"2018-02-17T06:51:38.284Z,2018-01-18T23:32:19.274Z,2018-01-26T00:25:09.407Z,2018-01-24T11:04:48.938Z,2018-01-13T19:25:52.227Z,2017-12-18T02:41:00.000Z,2017-12-09T01:33:00.000Z,2016-03-26T04:28:00.000Z",,Cheese Pizza,Tomato and Basil,11215,USD,0,25,NY
AVwco_UVkufWRAb5xbcN,2016-05-04T01:34:38Z,2019-04-10T08:38:45Z,616 Virginia Beach Blvd,Pizza Place,Accommodation & Food Services,Virginia Beach,US,us/va/virginiabeach/616virginiabeachblvd/736049453,36.844691,-75.982375,,8.99,8.99,USD,"2018-03-31T06:00:11.860Z,2018-01-26T11:34:37.386Z,2018-01-20T23:03:14.266Z,2018-01-22T04:48:06.766Z,2018-01-21T22:10:21.532Z,2017-12-17T03:40:05.560Z,2017-12-11T18:00:46.871Z,2017-10-26T21:06:19.109Z,2016-05-04T01:34:38Z",,Cheese Pizza,Beach Bella Pizza,23451,USD,0,25,VA
AVwclJZEkufWRAb5wwA_,2015-11-15T18:17:23Z,2019-04-09T16:56:49Z,3910 Ruckriegel Pkwy,"Pizza Place,Pizza Place East Louisville","Accommodation & Food Services,Management of Companies & Enterprises",Louisville,US,us/ky/louisville/3910ruckriegelpkwy/-767210258,38.190252,-85.567658,,14.95,14.95,USD,"2018-02-27T01:04:22.126Z,2018-01-22T08:15:29.904Z,2018-01-18T14:06:26.570Z,2018-01-22T20:48:47.294Z,2018-01-19T06:27:05.898Z,2018-01-17T01:13:48.362Z,2017-12-20T00:08:00.000Z,2017-12-10T13:42:00.000Z",,Cheese Pizza,Chubby Rays Original Louisville Pizza Company,40299,USD,25,40,KY
AVwclJZEkufWRAb5wwA_,2015-11-15T18:17:23Z,2019-04-09T16:56:49Z,3910 Ruckriegel Pkwy,"Pizza Place,Pizza Place East Louisville","Accommodation & Food Services,Management of Companies & Enterprises",Louisville,US,us/ky/louisville/3910ruckriegelpkwy/-767210258,38.190252,-85.567658,,11.95,11.95,USD,"2018-02-27T01:04:22.093Z,2018-01-22T08:15:29.899Z,2018-01-18T14:06:26.565Z,2018-01-22T20:48:47.280Z,2018-01-19T06:27:05.891Z,2018-01-17T01:13:48.356Z,2017-12-20T00:08:00.000Z,2017-12-10T13:42:00.000Z",,Cheese Pizza,Chubby Rays Original Louisville Pizza Company,40299,USD,25,40,KY
AVwdpS-3ByjofQCxrKQA,2016-03-22T19:09:39Z,2019-04-09T14:49:00Z,1133 Emmet St N,"Pizza,Restaurant,Pizza Place,Pizza Place Barracks Road,Restaurants",Accommodation & Food Services,Charlottesville,US,us/va/charlottesville/1133emmetstn/348880352,38.051919,-78.500545,,4.95,4.95,USD,"2018-04-10T01:36:39.631Z,2018-01-23T14:28:00.469Z,2018-01-18T18:03:14.287Z,2017-12-21T16:09:00.000Z,2017-12-12T05:22:00.000Z,2018-04-06T02:50:29.553Z,2018-01-19T03:48:23.176Z,2018-02-27T11:22:50.455Z",,Cheese Pizza,Brixx Wood Fired Pizza,22903,USD,25,40,VA
AV4rBnBz3-Khe5l_R6YL,2017-08-28T22:46:35Z,2019-04-05T06:03:37Z,500 S Memorial Dr,"Pizza,Restaurant,American restaurants,Pizza Place,Restaurants",Accommodation & Food Services,New Castle,US,us/in/newcastle/500smemorialdr/-2068016097,39.928051,-85.381193,,0,0,USD,"2018-01-29T19:12:08.385Z,2018-04-08T15:20:11.311Z,2018-04-11T10:41:42.041Z,2018-06-23T09:56:38.183Z,2018-02-16T23:42:04.171Z,2018-04-26T14:50:08.404Z,2018-02-01T16:02:43.595Z",,Cheese Pizza,Pizza King,47362,USD,0,25,IN
AVwds7PI_7pvs4fz8erK,2016-04-01T06:27:47Z,2019-04-05T05:44:36Z,8639 Regency Park Blvd,Pizza Place,Accommodation & Food Services,Port Richey,US,us/fl/portrichey/8639regencyparkblvd/285516571,28.282668,-82.697508,,1,1,USD,2018-01-19T00:47:00.282Z,,Cheese Pizza,Mama Mia Pizzeria,34668,USD,0,25,FL
AVwds7PI_7pvs4fz8erK,2016-04-01T06:27:47Z,2019-04-05T05:44:36Z,8639 Regency Park Blvd,Pizza Place,Accommodation & Food Services,Port Richey,US,us/fl/portrichey/8639regencyparkblvd/285516571,28.282668,-82.697508,,9.99,9.99,USD,2018-02-27T01:06:08.791Z,,Cheese Pizza,Mama Mia Pizzeria,34668,USD,0,25,FL
AVwckRTLkufWRAb5wmVb,2015-10-23T03:02:52Z,2019-04-04T16:54:40Z,1539 Rock Springs Rd,Pizza Place,Accommodation & Food Services,Apopka,US,us/fl/apopka/1539rockspringsrd/1264908367,28.706351,-81.508151,,12.95,12.95,USD,"2018-01-20T09:24:29.969Z,2018-01-18T23:59:08.236Z,2017-12-11T02:34:50.972Z,2017-12-11T02:34:50.983Z,2018-01-18T16:45:46.897Z,2018-01-20T21:29:20.081Z,2018-01-18T23:59:08.262Z,2018-01-20T21:29:20.057Z,2016-03-21T01:42:04Z,2018-04-05T21:24:21.841Z,2018-04-02T01:09:04.159Z,2018-01-18T16:45:46.919Z,2018-01-18T22:06:00.271Z,2017-12-20T05:41:11.017Z,2018-02-18T16:21:14.334Z,2018-02-18T16:21:14.356Z,2018-04-02T01:09:04.140Z,2017-12-20T05:41:11.002Z,2018-04-05T21:24:21.817Z,2018-01-18T22:06:00.256Z,2018-01-20T09:24:29.953Z",,Cheese Pizza,Anthonys Pizza And Italian Restaurant,32712,USD,0,25,FL
AVwckRTLkufWRAb5wmVb,2015-10-23T03:02:52Z,2019-04-04T16:54:40Z,1539 Rock Springs Rd,Pizza Place,Accommodation & Food Services,Apopka,US,us/fl/apopka/1539rockspringsrd/1264908367,28.706351,-81.508151,,9.95,9.95,USD,"2018-01-20T09:24:29.969Z,2018-01-18T23:59:08.235Z,2017-12-11T02:34:50.972Z,2017-12-11T02:34:50.983Z,2018-01-18T16:45:46.897Z,2018-01-20T21:29:20.081Z,2018-01-18T23:59:08.261Z,2018-01-20T21:29:20.057Z,2018-04-05T21:24:21.840Z,2018-04-02T01:09:04.159Z,2018-01-18T16:45:46.919Z,2018-01-18T22:06:00.271Z,2017-12-20T05:41:11.017Z,2018-02-18T16:21:14.334Z,2018-04-02T01:09:04.140Z,2018-02-18T16:21:14.355Z,2017-12-20T05:41:11.002Z,2018-04-05T21:24:21.817Z,2018-01-18T22:06:00.255Z,2018-01-20T09:24:29.953Z",,Cheese Pizza,Anthonys Pizza And Italian Restaurant,32712,USD,0,25,FL
AVwdWTeeIN2L1WUfu4O-,2015-09-13T02:43:03Z,2019-04-04T13:09:45Z,2001 W Pacific Ave,"Restaurant,Pizza Place",Accommodation & Food Services,Spokane,US,us/wa/spokane/2001wpacificave/-1771280063,47.655404,-117.441921,,6,6,USD,"2018-02-16T00:56:44.570Z,2017-12-06T19:25:18.046Z,2018-01-20T17:51:06.573Z,2017-10-17T06:06:15.045Z,2018-01-18T16:07:51.526Z,2018-01-10T19:19:09.622Z,2018-04-07T05:02:09.579Z,2018-01-28T04:43:07.473Z,2018-01-19T19:42:03.017Z,2018-01-19T02:42:09.932Z,2017-12-15T19:28:44.835Z",,Cheese Pizza,Pacific Ave Pizza,99201,USD,0,25,WA
AVweASj5_7pvs4fz_L8O,2016-12-01T03:14:16Z,2019-04-03T08:54:58Z,4659 Telephone Rd,Pizza Place,Accommodation & Food Services,Houston,US,us/tx/houston/4659telephonerd/631534790,29.694913,-95.299597,,4.25,4.25,USD,"2018-01-18T16:01:36.385Z,2018-01-18T13:54:53.207Z,2018-01-18T13:43:06.811Z,2018-01-12T12:56:44.556Z,2017-12-17T06:13:21.355Z,2017-10-26T08:31:11.917Z",,Cheese Pizza,Spankys Pizza Bar,77087,USD,0,25,TX
AV1v9-TPRxPSIh2RblrV,2017-07-23T15:01:43Z,2019-04-03T08:21:16Z,343 NC Highway 68 S,Pizza Place,Accommodation & Food Services,Greensboro,US,us/nc/greensboro/343nchighway68s/-225925113,36.066575,-79.959581,,7.99,7.99,USD,2017-10-29T06:33:00.000Z,,Cheese Pizza,Milanos Pizza,27409,USD,0,25,NC
AV1v9-TPRxPSIh2RblrV,2017-07-23T15:01:43Z,2019-04-03T08:21:16Z,343 NC Highway 68 S,Pizza Place,Accommodation & Food Services,Greensboro,US,us/nc/greensboro/343nchighway68s/-225925113,36.066575,-79.959581,,9.99,9.99,USD,2017-10-29T06:33:00.000Z,,Cheese Pizza,Milanos Pizza,27409,USD,0,25,NC
AVweCnySkufWRAb5_e3e,2016-11-08T02:46:27Z,2019-04-03T08:19:21Z,245 Hwy 101,"Pizza Place,Restaurants",Accommodation & Food Services,Waldport,US,us/or/waldport/245hwy101/378773311,44.424628,-124.06827,,19,19,USD,2017-12-22T00:09:14.854Z,,Cheese Pizza,Grand Central Pizza,97394,USD,0,25,OR
AVweCnySkufWRAb5_e3e,2016-11-08T02:46:27Z,2019-04-03T08:19:21Z,245 Hwy 101,"Pizza Place,Restaurants",Accommodation & Food Services,Waldport,US,us/or/waldport/245hwy101/378773311,44.424628,-124.06827,,6,6,USD,2017-12-22T00:09:14.850Z,,Cheese Pizza,Grand Central Pizza,97394,USD,0,25,OR
AVyis-k_YuCoGd6wM3YQ,2017-06-13T18:25:18Z,2019-04-03T08:14:55Z,3067 Roosevelt St,"Restaurant,Pizza Place",Accommodation & Food Services,Carlsbad,US,us/ca/carlsbad/3067rooseveltst/-2027443347,33.159453,-117.347199,,5.95,5.95,USD,"2018-04-13T03:22:52.476Z,2018-06-29T15:03:50.209Z,2018-06-15T21:02:01.602Z,2018-05-07T11:47:44.911Z,2018-05-26T12:41:26.749Z,2018-06-28T18:45:40.188Z",,Cheese Pizza,New York Pizzeria,92008,USD,0,25,CA
AVwda5xuByjofQCxo7nG,2016-04-06T02:22:49Z,2019-04-02T05:29:55Z,60 E San Francisco St,Pizza Place,Accommodation & Food Services,Santa Fe,US,us/nm/santafe/60esanfranciscost/-1028123353,35.6865,-105.939325,,9.5,9.5,USD,"2018-01-27T20:12:21.198Z,2018-01-19T17:49:51.268Z,2018-01-19T03:09:54.806Z,2016-04-06T02:22:49Z",,Cheese Pizza,Rooftop Pizza,87501,USD,0,25,NM
AVzoAt4Y3D1zeR_xCTzA,2017-06-27T05:25:21Z,2019-04-02T05:29:00Z,545 E King St,Pizza Place,Accommodation & Food Services,Franklin,US,us/in/franklin/545ekingst/1697369331,39.478095,-86.055032,,8,8,USD,"2018-02-13T18:45:10.713Z,2018-02-27T04:15:35.686Z,2018-01-19T21:04:47.865Z,2018-01-18T23:35:38.127Z,2017-12-19T23:18:36.415Z,2017-12-10T22:24:42.332Z",,Cheese Pizza,Richards Brick Oven Pizza,46131,USD,0,25,IN
AVwd8X_CkufWRAb5-m3m,2015-10-20T03:24:39Z,2019-04-02T05:26:59Z,22994 Ventura Blvd,"Italian Restaurant,Pizza Place and Italian Restaurant,Pizza Place",Accommodation & Food Services,Woodland Hills,US,us/ca/woodlandhills/22994venturablvd/-1479610103,34.164745,-118.626702,,8.9,8.9,USD,"2018-02-23T05:10:55.101Z,2018-01-27T12:41:00.786Z,2018-01-18T23:34:04.780Z,2018-01-18T15:24:11.760Z",,Cheese Pizza,Topanga Pizza and Cafe,91364,USD,0,25,CA
AVwd8X_CkufWRAb5-m3m,2015-10-20T03:24:39Z,2019-04-02T05:26:59Z,22994 Ventura Blvd,"Italian Restaurant,Pizza Place and Italian Restaurant,Pizza Place",Accommodation & Food Services,Woodland Hills,US,us/ca/woodlandhills/22994venturablvd/-1479610103,34.164745,-118.626702,,12.55,12.55,USD,"2018-02-23T05:10:55.100Z,2018-01-27T12:41:00.786Z,2018-01-18T23:34:04.780Z,2018-01-18T15:24:11.760Z",,Cheese Pizza,Topanga Pizza and Cafe,91364,USD,0,25,CA
AVwd8X_CkufWRAb5-m3m,2015-10-20T03:24:39Z,2019-04-02T05:26:59Z,22994 Ventura Blvd,"Italian Restaurant,Pizza Place and Italian Restaurant,Pizza Place",Accommodation & Food Services,Woodland Hills,US,us/ca/woodlandhills/22994venturablvd/-1479610103,34.164745,-118.626702,,12.55,12.55,USD,"2016-04-28T06:03:00.000Z,2015-10-20T03:25:00.000Z",Large,Cheese Pizza,Topanga Pizza and Cafe,91364,USD,0,25,CA
AVwchdIGByjofQCxfKfI,2016-07-01T15:02:48Z,2019-04-01T18:46:20Z,5909 Big Tree Rd,"Pizza,Caterers,Pizza Place,Restaurants,Italian Restaurants",Accommodation & Food Services,Lakeville,US,us/ny/lakeville/5909bigtreerd/618421435,42.8348,-77.6983,,5.99,5.99,USD,"2017-12-20T06:27:21.477Z,2018-01-22T04:51:00.691Z,2018-04-05T18:02:41.601Z,2016-10-20T05:10:33Z,2018-02-18T15:06:19.456Z,2017-10-29T12:33:01.832Z,2017-12-11T03:33:37.882Z",,Cheese Pizza,Vincenzo's Pizza,14480,USD,0,25,NY
AV0Yziud-gnIPe8DVVAN,2017-07-06T16:49:11Z,2019-04-01T18:42:24Z,108 S Main St,"Pizza,Italian Restaurant,Pizza Place,Restaurants",Accommodation & Food Services,Saint Charles,US,us/mo/saintcharles/108smainst/314007275,38.7808,-90.4813,http://www.citysearch.com/profile/menu/601712180?singlePlatformId=frankie-toccos-pizzeria,10.25,10.25,USD,"2018-02-23T21:32:54.703Z,2018-02-14T09:17:16.167Z,2018-01-19T07:21:06.921Z,2018-01-20T10:41:34.603Z,2018-01-19T02:07:19.738Z,2018-01-20T23:42:23.168Z,2018-01-20T04:09:33.191Z,2017-12-20T06:40:00.000Z,2017-12-11T11:21:00.000Z,2017-10-29T21:10:00.000Z",,Cheese Pizza,Frankie Tocco's Pizzeria,63301,USD,0,25,MO
AVweI6uxkufWRAb5AVsJ,2015-10-23T00:57:11Z,2019-04-01T18:40:03Z,1814 State Hill Rd,"Pizza Place,Restaurants",Accommodation & Food Services,Reading,US,us/pa/reading/1814statehillrd/-268817234,40.3385,-75.9742,,8.5,8.5,USD,"2018-04-05T18:34:50.824Z,2018-01-24T22:42:46.219Z,2017-12-11T00:35:05.688Z,2017-10-29T13:02:31.605Z,2017-12-20T07:06:04.173Z",,Cheese Pizza,Original Mama's Pizza,19610,USD,0,25,PA
AVweI6uxkufWRAb5AVsJ,2015-10-23T00:57:11Z,2019-04-01T18:40:03Z,1814 State Hill Rd,"Pizza Place,Restaurants",Accommodation & Food Services,Reading,US,us/pa/reading/1814statehillrd/-268817234,40.3385,-75.9742,,14.99,14.99,USD,"2017-12-11T00:35:05.689Z,2018-04-05T18:34:50.826Z,2017-10-29T13:02:31.605Z,2018-01-24T22:42:46.221Z,2017-12-20T07:06:04.174Z",,Cheese Pizza,Original Mama's Pizza,19610,USD,0,25,PA
AVwdNsEMkufWRAb53gT_,2016-05-05T12:46:56Z,2019-04-01T15:34:50Z,1754 Central Park Dr,"Pizza,Pizza Place,Restaurants",Accommodation & Food Services,Okemos,US,us/mi/okemos/1754centralparkdr/1568782142,42.727718,-84.410402,,3.5,3.5,USD,"2018-02-12T19:32:01.999Z,2018-01-19T13:22:18.928Z,2017-12-09T16:50:02.730Z,2017-10-28T06:27:41.785Z,2016-05-07T22:16:26Z,2016-05-05T12:46:56Z",,Cheese Pizza,Guidos Premium Pizza,48864,USD,0,25,MI
AVwcwc3K_7pvs4fzyoqS,2016-03-24T09:44:40Z,2019-04-01T15:12:01Z,6002 Washington Ave,"Pizza,Restaurant,Buffet,Pizza Place,Restaurants",Accommodation & Food Services,Houston,US,us/tx/houston/6002washingtonave/1476278484,29.770742,-95.417685,http://www.singlepage.com/candelaris-pizzeria-3,7.5,7.5,USD,"2018-01-19T02:34:54.212Z,2018-01-20T05:46:24.253Z,2018-01-19T12:33:49.134Z,2018-01-21T18:16:03.760Z,2018-01-12T09:40:53.887Z,2017-12-17T08:36:25.362Z,2017-12-08T19:19:36.162Z,2017-10-27T01:42:13.241Z",,Cheese Pizza,Candelaris Pizzeria,77007,USD,25,40,TX
AWEM-bzia4HuVbedMik0,2018-01-19T05:46:15Z,2019-04-01T15:07:53Z,53rd and Haverford,Pizza Place,Accommodation & Food Services,Philadelphia,US,us/pa/philadelphia/53rdandhaverford/446179995,39.964745,-75.224059,,14.5,14.5,USD,"2018-03-31T06:06:14.686Z,2018-01-21T19:16:14.709Z,2018-01-18T13:40:30.751Z",,Cheese Pizza,Petes Pizza,19139,USD,0,25,PA
AVweRPSQIN2L1WUf3c8T,2016-03-28T05:44:20Z,2019-04-01T15:06:24Z,605 N Pottstown Pike,Pizza Place,Accommodation & Food Services,Exton,US,us/pa/exton/605npottstownpike/819433892,40.050748,-75.636013,,9.95,9.95,USD,2016-03-28T05:44:20Z,With plum tomato sauce and mozzarella,Cheese Pizza,Roccos Pizza Restaurant,19341,USD,0,25,PA
AVwdUhLv_7pvs4fz4o3D,2016-03-31T02:32:44Z,2019-04-01T13:23:53Z,205 5th St,Pizza Place,Accommodation & Food Services,West Des Moines,US,us/ia/westdesmoines/2055thst/938714048,41.571417,-93.708752,,10.25,10.25,USD,"2018-04-01T14:21:39.687Z,2018-01-23T19:52:17.290Z,2018-01-19T09:44:59.663Z,2018-01-25T09:21:57.484Z,2018-01-18T14:11:33.985Z,2018-01-15T12:28:54.162Z,2017-12-19T11:56:00.000Z,2017-12-10T23:22:00.000Z,2017-10-28T22:05:00.000Z",,Cheese Pizza,Chuck Celsis Tavern Restaurant,50265,USD,0,25,IA
AVwdUhLv_7pvs4fz4o3D,2016-03-31T02:32:44Z,2019-04-01T13:23:53Z,205 5th St,Pizza Place,Accommodation & Food Services,West Des Moines,US,us/ia/westdesmoines/2055thst/938714048,41.571417,-93.708752,,17.75,17.75,USD,"2018-04-01T14:21:39.690Z,2018-01-23T19:52:17.295Z,2018-01-19T09:44:59.668Z,2018-01-25T09:21:57.488Z,2018-01-18T14:11:33.991Z,2018-01-15T12:28:54.166Z,2017-12-19T11:56:00.000Z,2017-12-10T23:22:00.000Z,2017-10-28T22:05:00.000Z,2016-03-31T02:33:00.000Z",,Cheese Pizza,Chuck Celsis Tavern Restaurant,50265,USD,0,25,IA
AVwdUhLv_7pvs4fz4o3D,2016-03-31T02:32:44Z,2019-04-01T13:23:53Z,205 5th St,Pizza Place,Accommodation & Food Services,West Des Moines,US,us/ia/westdesmoines/2055thst/938714048,41.571417,-93.708752,,11.7,11.7,USD,"2018-04-01T14:21:39.687Z,2018-01-23T19:52:17.291Z,2018-01-19T09:44:59.664Z,2018-01-25T09:21:57.484Z,2018-01-18T14:11:33.985Z,2018-01-15T12:28:54.162Z,2017-12-19T11:56:00.000Z,2017-12-10T23:22:00.000Z,2017-10-28T22:05:00.000Z",,Cheese Pizza,Chuck Celsis Tavern Restaurant,50265,USD,0,25,IA
AV1thBeYa4HuVbed8XdQ,2017-07-23T03:35:59Z,2019-04-01T11:48:46Z,1906 E Carson St,"Restaurant,Pizza Place,Restaurants",Accommodation & Food Services,Pittsburgh,US,us/pa/pittsburgh/1906ecarsonst/1129160400,40.4286,-79.9791,,27.9,27.9,USD,"2018-06-15T20:59:32.555Z,2018-05-28T16:06:50.734Z,2018-05-02T11:40:02.639Z,2018-04-14T02:52:24.155Z,2018-04-26T14:52:14.764Z",,Cheese Pizza,Benny Fierros,15203,USD,0,25,PA
AV5Brc-lIxWefVJwmRha,2017-09-02T08:18:17Z,2019-04-01T10:57:57Z,158 W FM 544,"Restaurant,Pizza Place",Accommodation & Food Services,Plano,US,us/tx/plano/158wfm544/-1775605863,33.011399,-96.616538,,7.99,7.99,USD,"2018-05-13T05:21:11.969Z,2018-06-26T10:06:11.152Z",,Cheese Pizza,Mogios Gourmet Pizza,75094,USD,0,30,TX
AVzA9AR83D1zeR_xBBtt,2017-06-19T15:23:56Z,2019-04-01T05:07:32Z,2810 Raeford Rd,"Pizza Place,Catering,Restaurants",Accommodation & Food Services,Fayetteville,US,us/nc/fayetteville/2810raefordrd/-876390497,35.0455,-78.9257,,14.75,14.75,USD,"2018-01-19T09:42:03.834Z,2018-01-18T23:55:45.410Z,2018-01-18T23:18:46.486Z,2018-01-18T18:25:23.477Z,2018-01-11T08:05:43.635Z,2017-12-17T22:55:00.000Z,2017-12-09T10:19:00.000Z",,Cheese Pizza,Primo Pizza,28303,USD,0,25,NC
AV1XXGmYFcQ3k02bFpU1,2017-07-18T20:21:00Z,2019-04-01T04:31:53Z,1714 Main St,"Restaurant,Pizza Place",Accommodation & Food Services,Pittsburgh,US,us/pa/pittsburgh/1714mainst/-1689561644,40.494767,-79.92264,,5.99,5.99,USD,"2018-01-27T08:25:49.657Z,2018-01-14T17:27:00.516Z,2017-12-21T16:12:00.000Z,2017-12-11T21:41:00.000Z",,Cheese Pizza,Gino Brothers Pizzeria,15215,USD,0,25,PA
AVwdopBdIN2L1WUfxwyC,2016-03-30T04:24:12Z,2019-04-01T02:58:39Z,1764 Merrick Ave,"Restaurant,Pizza Place,Restaurants",Accommodation & Food Services,Merrick,US,us/ny/merrick/1764merrickave/450400671,40.6751,-73.5574,http://www.citysearch.com/profile/menu/36434458?singlePlatformId=via-roma,14,14,USD,"2018-01-29T18:06:26.673Z,2018-06-11T16:45:07.026Z,2018-04-22T00:00:53.038Z",A delicious cheesy pizza with a mellow tomato sauce,Cheese Pizza,Via Roma,11566,USD,0,25,NY
AVwdlrS__7pvs4fz7XjX,2016-04-02T05:28:07Z,2019-03-31T08:21:12Z,1022 Boston Dr,"Pizza,Restaurant,Bar,Pizza Place,Pizza Place and Bar,Restaurants",Accommodation & Food Services,Burlington,US,us/nc/burlington/1022bostondr/348880352,36.0705,-79.5087,http://www.citysearch.com/profile/menu/667152040?singlePlatformId=brixx-wood-fired-pizza-12,4.95,4.95,USD,"2018-02-18T15:21:37.004Z,2018-02-23T08:45:54.903Z,2018-01-18T17:00:03.192Z,2018-01-19T20:09:16.330Z,2018-01-18T22:50:27.382Z,2018-01-18T21:35:24.863Z,2018-01-19T03:17:50.051Z,2017-12-20T07:13:40.688Z,2017-12-11T00:35:40.639Z,2016-04-02T05:28:07Z",,Cheese Pizza,Brixx Wood Fired Pizza,27215,USD,25,40,NC
AVzX6QKaLD2H7whiWwpg,2017-06-24T02:23:10Z,2019-03-29T00:07:02Z,2295 NW Allie Ave,"Pizza,Restaurant,Caterers,Pizza Place,Restaurants",Accommodation & Food Services,Hillsboro,US,us/or/hillsboro/2295nwallieave/-841089144,45.5369,-122.8769,,5,5,USD,"2017-12-20T06:09:35.395Z,2017-12-10T22:13:01.237Z,2017-10-29T06:28:11.969Z",,Cheese Pizza,The Rock Wood Fired Kitchen,97124,USD,25,40,OR
AVwdalfokufWRAb55qYh,2016-03-27T05:37:34Z,2019-03-28T23:27:19Z,800 Nicollet Mall,"Pizza,Pizza Place Downtown West,Pizza Place,Bakeries,Restaurants",Accommodation & Food Services,Minneapolis,US,us/mn/minneapolis/800nicolletmall/-1208785553,44.975731,-93.273408,http://www.yellowpages.com/minneapolis-mn/mip/mamas-bakery-pizza-salad-bar-451338699/menu,6.99,6.99,USD,2016-03-27T05:37:34Z,With Alfredo sauce.,Cheese Pizza,Mamas Bakery Pizza Salad Bar,55402,USD,0,25,MN
AVwdVNVoByjofQCxn-xw,2016-03-28T06:01:27Z,2019-03-27T21:00:29Z,338 McGuinness Blvd,"Pizza Place Greenpoint,Pizza Place",Accommodation & Food Services,Brooklyn,US,us/ny/brooklyn/338mcguinnessblvd/1471408127,40.734057,-73.952082,,18,11,USD,"2018-02-12T19:25:51.201Z,2018-03-30T20:16:29.031Z,2017-12-06T15:35:16.466Z,2018-01-20T03:21:36.425Z,2018-02-22T17:53:37.680Z,2018-01-19T03:52:41.546Z,2018-01-20T17:15:52.499Z,2017-12-15T17:23:23.723Z,2017-10-22T15:22:11.394Z",,Cheese Pizza,Casanova Family Italian Restaurant Pizzeria,11222,USD,0,25,NY
AVzA1sSILD2H7whiWFgX,2017-06-19T14:51:59Z,2019-03-27T20:59:10Z,493 Amsterdam Ave,Pizza Place,Accommodation & Food Services,New York,US,us/ny/newyork/493amsterdamave/1137880540,40.786215,-73.976107,,14,14,USD,2017-10-18T23:33:00.000Z,,Cheese Pizza,Caesars Palace Pizzeria,10024,USD,0,25,NY
AVzwEnR5LD2H7whiX3aG,2017-06-28T18:59:20Z,2019-03-26T23:52:39Z,201 S Meridian,"Restaurant,Pizza Place",Accommodation & Food Services,Puyallup,US,us/wa/puyallup/201smeridian/-1157033818,47.192493,-122.293453,,16.95,16.95,USD,"2018-01-19T04:33:57.323Z,2018-01-20T01:36:15.140Z,2017-12-11T09:00:00.000Z,2018-02-18T18:31:42.460Z,2017-10-29T20:28:00.000Z,2018-01-18T13:54:12.309Z,2018-01-18T23:47:06.066Z,2018-01-19T01:15:35.555Z,2017-12-20T05:35:00.000Z,2018-04-05T18:18:32.971Z",,Cheese Pizza,Trackside Pizza,98371,USD,0,25,WA
AVweHra1ByjofQCxvcaW,2015-10-19T22:36:03Z,2019-03-26T23:51:05Z,804 Brazospark Dr,Pizza Place,Accommodation & Food Services,Clute,US,us/tx/clute/804brazosparkdr/1252902133,29.013555,-95.418407,,7.49,7.49,USD,"2018-01-18T15:42:38.677Z,2018-01-18T22:38:46.862Z",,Cheese Pizza,All Star Pizza,77531,USD,0,25,TX
AVweDq1YIN2L1WUf1nIV,2016-05-29T02:01:50Z,2019-03-26T23:23:37Z,24762 N Lake Pleasant Pkwy,"Pizza,Restaurant,Pizza Place Deer Valley,Pizza Place,Restaurants",Accommodation & Food Services,Peoria,US,us/az/peoria/24762nlakepleasantpkwy/-1836281467,33.70856,-112.27312,,5.75,5.75,USD,"2018-05-07T13:09:04.328Z,2018-05-13T05:17:29.959Z,2018-05-26T16:33:53.699Z",,Cheese Pizza,Barros Pizza,85383,USD,0,25,AZ
AV1_P_i0IxWefVJwieAN,2017-07-26T14:14:45Z,2019-03-26T22:49:02Z,4761 Dixie Hwy,"Pizza,Carry Out Food,Pizza Place,Restaurants",Accommodation & Food Services,Fairfield,US,us/oh/fairfield/4761dixiehwy/-49646452,39.347395,-84.54259,,13.55,13.55,USD,"2017-10-30T02:25:33.380Z,2018-01-20T18:54:31.673Z,2018-02-18T15:06:53.029Z,2018-04-05T19:56:53.000Z,2018-01-19T06:42:07.191Z,2017-10-30T02:25:33.374Z,2018-02-27T08:00:01.821Z,2017-12-20T11:14:39.091Z,2018-01-19T21:58:06.824Z,2018-02-27T08:00:01.834Z,2017-12-11T17:52:35.707Z,2018-01-19T21:58:06.817Z,2018-01-19T06:42:07.200Z,2018-02-14T09:22:00.898Z,2017-12-11T17:52:35.713Z,2018-04-05T19:56:52.995Z,2018-02-14T09:22:00.885Z,2018-01-20T18:54:31.680Z,2018-02-18T15:06:53.041Z,2017-12-20T11:14:39.103Z",,Cheese Pizza,Cassanos Pizza Subs,45014,USD,0,25,OH
AV1_P_i0IxWefVJwieAN,2017-07-26T14:14:45Z,2019-03-26T22:49:02Z,4761 Dixie Hwy,"Pizza,Carry Out Food,Pizza Place,Restaurants",Accommodation & Food Services,Fairfield,US,us/oh/fairfield/4761dixiehwy/-49646452,39.347395,-84.54259,,3.1,3.1,USD,"2018-01-20T18:54:31.679Z,2017-10-30T02:25:33.390Z,2017-10-30T02:25:33.380Z,2018-02-27T08:00:01.832Z,2018-01-19T21:58:06.823Z,2018-01-19T06:42:07.199Z,2017-12-11T17:52:35.706Z,2018-01-19T06:42:07.211Z,2017-12-11T17:52:35.726Z,2018-04-05T19:56:52.993Z,2017-12-11T17:52:35.712Z,2018-02-14T09:22:00.883Z,2018-02-18T15:06:53.055Z,2017-12-20T11:14:39.115Z,2018-04-05T19:56:53.008Z,2018-01-20T18:54:31.688Z,2017-12-20T11:14:39.101Z,2018-02-18T15:06:53.028Z,2018-02-27T08:00:01.819Z,2018-01-20T18:54:31.672Z,2018-04-05T19:56:53.000Z,2017-10-30T02:25:33.373Z,2018-02-27T08:00:01.851Z,2018-01-19T21:58:06.834Z,2017-12-20T11:14:39.090Z,2018-01-19T21:58:06.816Z,2018-01-19T06:42:07.189Z,2018-02-14T09:22:00.896Z,2018-02-18T15:06:53.040Z,2018-02-14T09:22:00.915Z",,Cheese Pizza,Cassanos Pizza Subs,45014,USD,0,25,OH
AV1_P_i0IxWefVJwieAN,2017-07-26T14:14:45Z,2019-03-26T22:49:02Z,4761 Dixie Hwy,"Pizza,Carry Out Food,Pizza Place,Restaurants",Accommodation & Food Services,Fairfield,US,us/oh/fairfield/4761dixiehwy/-49646452,39.347395,-84.54259,,9.8,9.8,USD,"2018-01-20T18:54:31.679Z,2018-01-20T18:54:31.689Z,2017-10-30T02:25:33.380Z,2017-10-30T02:25:33.374Z,2018-01-19T21:58:06.823Z,2018-01-19T06:42:07.199Z,2018-02-14T09:22:00.897Z,2018-01-19T06:42:07.211Z,2017-12-11T17:52:35.726Z,2017-12-11T17:52:35.712Z,2017-12-20T11:14:39.115Z,2018-04-05T19:56:53.008Z,2017-12-20T11:14:39.101Z,2018-02-18T15:06:53.028Z,2017-10-30T02:25:33.391Z,2018-02-27T08:00:01.819Z,2018-01-20T18:54:31.672Z,2018-01-19T06:42:07.190Z,2018-04-05T19:56:53.000Z,2018-02-27T08:00:01.851Z,2018-01-19T21:58:06.834Z,2017-12-20T11:14:39.090Z,2018-02-27T08:00:01.833Z,2018-01-19T21:58:06.816Z,2017-12-11T17:52:35.707Z,2018-04-05T19:56:52.994Z,2018-02-14T09:22:00.884Z,2018-02-18T15:06:53.040Z,2018-02-18T15:06:53.056Z,2018-02-14T09:22:00.915Z",,Cheese Pizza,Cassanos Pizza Subs,45014,USD,0,25,OH
AV1_P_i0IxWefVJwieAN,2017-07-26T14:14:45Z,2019-03-26T22:49:02Z,4761 Dixie Hwy,"Pizza,Carry Out Food,Pizza Place,Restaurants",Accommodation & Food Services,Fairfield,US,us/oh/fairfield/4761dixiehwy/-49646452,39.347395,-84.54259,,17.9,17.9,USD,"2018-04-05T19:56:53.002Z,2018-02-27T08:00:01.837Z,2018-01-20T18:54:31.675Z,2017-10-30T02:25:33.383Z,2018-01-19T06:42:07.192Z,2017-12-20T11:14:39.093Z,2017-10-30T02:25:33.376Z,2018-01-19T21:58:06.826Z,2017-12-11T17:52:35.708Z,2018-02-27T08:00:01.824Z,2017-12-11T17:52:35.716Z,2018-01-19T21:58:06.819Z,2018-02-14T09:22:00.888Z,2018-01-19T06:42:07.202Z,2018-04-05T19:56:52.996Z,2017-12-20T11:14:39.106Z,2018-01-20T18:54:31.681Z,2018-02-18T15:06:53.032Z,2018-02-18T15:06:53.043Z,2018-02-14T09:22:00.904Z",,Cheese Pizza,Cassanos Pizza Subs,45014,USD,0,25,OH
AV1_P_i0IxWefVJwieAN,2017-07-26T14:14:45Z,2019-03-26T22:49:02Z,4761 Dixie Hwy,"Pizza,Carry Out Food,Pizza Place,Restaurants",Accommodation & Food Services,Fairfield,US,us/oh/fairfield/4761dixiehwy/-49646452,39.347395,-84.54259,,12.3,12.3,USD,"2017-10-30T02:25:33.380Z,2018-01-20T18:54:31.673Z,2018-02-18T15:06:53.029Z,2018-01-19T06:42:07.190Z,2018-04-05T19:56:53.000Z,2017-10-30T02:25:33.374Z,2017-12-20T11:14:39.091Z,2018-02-27T08:00:01.820Z,2018-01-19T21:58:06.824Z,2018-02-27T08:00:01.834Z,2017-12-11T17:52:35.707Z,2018-01-19T21:58:06.817Z,2018-01-19T06:42:07.200Z,2018-04-05T19:56:52.994Z,2018-02-14T09:22:00.898Z,2017-12-11T17:52:35.713Z,2018-02-14T09:22:00.885Z,2018-01-20T18:54:31.680Z,2018-02-18T15:06:53.041Z,2017-12-20T11:14:39.102Z",,Cheese Pizza,Cassanos Pizza Subs,45014,USD,0,25,OH
AV1_P_i0IxWefVJwieAN,2017-07-26T14:14:45Z,2019-03-26T22:49:02Z,4761 Dixie Hwy,"Pizza,Carry Out Food,Pizza Place,Restaurants",Accommodation & Food Services,Fairfield,US,us/oh/fairfield/4761dixiehwy/-49646452,39.347395,-84.54259,,5.95,5.95,USD,"2018-01-19T06:42:07.191Z,2018-04-05T19:56:53.001Z,2018-02-27T08:00:01.854Z,2018-02-27T08:00:01.822Z,2017-12-11T17:52:35.708Z,2018-01-19T21:58:06.817Z,2017-12-11T17:52:35.728Z,2018-01-19T06:42:07.201Z,2018-01-19T06:42:07.213Z,2017-12-11T17:52:35.714Z,2018-02-14T09:22:00.900Z,2018-04-05T19:56:52.995Z,2018-01-20T18:54:31.680Z,2018-01-20T18:54:31.690Z,2017-12-20T11:14:39.117Z,2018-02-18T15:06:53.057Z,2017-10-30T02:25:33.381Z,2017-10-30T02:25:33.393Z,2018-04-05T19:56:53.010Z,2018-01-20T18:54:31.674Z,2017-12-20T11:14:39.092Z,2017-10-30T02:25:33.375Z,2018-01-19T21:58:06.824Z,2018-01-19T21:58:06.836Z,2018-02-27T08:00:01.835Z,2018-02-14T09:22:00.886Z,2018-02-14T09:22:00.917Z,2018-02-18T15:06:53.042Z,2018-02-18T15:06:53.030Z,2017-12-20T11:14:39.104Z",,Cheese Pizza,Cassanos Pizza Subs,45014,USD,0,25,OH
AV1_P_i0IxWefVJwieAN,2017-07-26T14:14:45Z,2019-03-26T22:49:02Z,4761 Dixie Hwy,"Pizza,Carry Out Food,Pizza Place,Restaurants",Accommodation & Food Services,Fairfield,US,us/oh/fairfield/4761dixiehwy/-49646452,39.347395,-84.54259,,3.9,3.9,USD,"2017-10-30T02:25:33.380Z,2018-01-20T18:54:31.673Z,2018-02-18T15:06:53.029Z,2018-01-19T06:42:07.190Z,2018-04-05T19:56:53.000Z,2017-10-30T02:25:33.374Z,2017-12-20T11:14:39.091Z,2018-02-27T08:00:01.820Z,2018-01-19T21:58:06.824Z,2018-02-27T08:00:01.833Z,2018-01-19T21:58:06.816Z,2017-12-11T17:52:35.707Z,2018-01-19T06:42:07.200Z,2018-04-05T19:56:52.994Z,2018-02-14T09:22:00.898Z,2017-12-11T17:52:35.712Z,2018-02-14T09:22:00.884Z,2018-01-20T18:54:31.680Z,2018-02-18T15:06:53.041Z,2017-12-20T11:14:39.102Z",,Cheese Pizza,Cassanos Pizza Subs,45014,USD,0,25,OH
AV1_P_i0IxWefVJwieAN,2017-07-26T14:14:45Z,2019-03-26T22:49:02Z,4761 Dixie Hwy,"Pizza,Carry Out Food,Pizza Place,Restaurants",Accommodation & Food Services,Fairfield,US,us/oh/fairfield/4761dixiehwy/-49646452,39.347395,-84.54259,,11.05,11.05,USD,"2017-12-20T11:14:39.101Z,2018-01-20T18:54:31.679Z,2017-10-30T02:25:33.380Z,2018-01-20T18:54:31.673Z,2018-02-18T15:06:53.029Z,2018-01-19T06:42:07.190Z,2018-04-05T19:56:53.000Z,2017-10-30T02:25:33.374Z,2018-01-19T21:58:06.823Z,2017-12-20T11:14:39.091Z,2018-02-27T08:00:01.820Z,2018-02-27T08:00:01.833Z,2018-01-19T21:58:06.816Z,2017-12-11T17:52:35.707Z,2018-01-19T06:42:07.199Z,2018-02-14T09:22:00.897Z,2018-04-05T19:56:52.994Z,2017-12-11T17:52:35.712Z,2018-02-14T09:22:00.884Z,2018-02-18T15:06:53.040Z",,Cheese Pizza,Cassanos Pizza Subs,45014,USD,0,25,OH
AVwdCfH6ByjofQCxk3Ao,2016-03-30T04:26:16Z,2019-03-26T22:48:55Z,7011 Warner Ave,Pizza Place,Accommodation & Food Services,Huntington Beach,US,us/ca/huntingtonbeach/7011warnerave/-94025541,33.715916,-118.00539,,5.5,5.5,USD,"2018-01-22T02:26:16.417Z,2018-01-19T23:48:14.994Z,2018-01-21T18:33:53.109Z,2018-01-12T13:11:42.242Z",,Cheese Pizza,Whatta Lotta Pizza,92647,USD,0,25,CA
AVwdjox-_7pvs4fz7DkV,2016-04-16T17:03:50Z,2019-03-26T20:34:32Z,2000 Main St,"Restaurant,Pizza Place",Accommodation & Food Services,Santa Monica,US,us/ca/santamonica/2000mainst/-499372699,34.006721,-118.488546,,16.95,16.95,USD,"2018-06-28T18:48:09.158Z,2018-05-21T04:12:27.693Z,2018-05-17T16:33:31.040Z,2018-02-01T15:58:24.496Z",Fresh mozzarella Parmesan oregano basil chili flake and olive oil With fresh tomato sauce,Cheese Pizza,Stella Barra,90405,USD,25,40,CA
AVwdjox-_7pvs4fz7DkV,2016-04-16T17:03:50Z,2019-03-26T20:34:32Z,2000 Main St,"Restaurant,Pizza Place",Accommodation & Food Services,Santa Monica,US,us/ca/santamonica/2000mainst/-499372699,34.006721,-118.488546,,15.95,15.95,USD,"2018-01-19T07:10:27.426Z,2018-01-19T07:10:27.430Z,2018-01-19T15:19:04.029Z,2018-01-19T15:19:04.037Z,2018-01-19T00:16:24.468Z,2018-01-19T00:16:24.476Z,2018-01-18T23:33:58.802Z,2018-01-18T23:33:58.809Z,2018-01-10T10:26:10.628Z,2018-01-10T10:26:10.636Z,2017-10-10T23:08:15.641Z,2017-10-10T23:08:15.672Z,2017-10-10T23:08:15.679Z",,Cheese Pizza,Stella Barra,90405,USD,25,40,CA
AVwci6p-ByjofQCxfcZ6,2015-12-17T18:57:41Z,2019-03-26T08:00:39Z,9820 Rea Rd,"Pizza Place and Salad Place,Salad Place,Pizza Place",Accommodation & Food Services,Charlotte,US,us/nc/charlotte/9820reard/348880352,35.034582,-80.805938,,4.95,4.95,USD,"2018-02-26T12:44:03.090Z,2018-01-19T21:43:54.332Z,2018-01-11T15:10:21.680Z,2018-01-20T00:13:04.406Z,2018-01-20T16:09:53.707Z,2018-01-20T05:07:30.474Z,2017-12-15T19:25:11.287Z,2017-12-07T16:44:35.362Z,2017-10-26T10:50:11.886Z,2015-12-17T18:57:41Z,2016-06-08T16:22:18Z",,Cheese Pizza,Brixx Wood Fired Pizza,28277,USD,25,40,NC
AVzA97paFcQ3k02bBaDA,2017-06-19T15:27:59Z,2019-03-26T06:52:45Z,10809 Mukilteo Speedway Ste B,Pizza Place,Accommodation & Food Services,Mukilteo,US,us/wa/mukilteo/10809mukilteospeedwaysteb/133243421,47.899993,-122.291503,,9,9,USD,"2018-01-27T00:16:55.523Z,2018-04-01T14:33:50.022Z,2018-01-19T19:11:10.051Z,2017-12-19T02:08:00.120Z,2018-01-28T06:55:08.118Z,2017-10-28T13:57:29.970Z,2017-10-07T16:39:57.549Z,2018-04-05T05:23:10.447Z,2018-01-15T13:45:53.914Z,2017-12-10T02:41:27.208Z",,Cheese Pizza,Lombardos Pizzeria,98275,USD,0,25,WA
AVzA97paFcQ3k02bBaDA,2017-06-19T15:27:59Z,2019-03-26T06:52:45Z,10809 Mukilteo Speedway Ste B,Pizza Place,Accommodation & Food Services,Mukilteo,US,us/wa/mukilteo/10809mukilteospeedwaysteb/133243421,47.899993,-122.291503,,16.5,16.5,USD,"2018-01-27T00:16:55.523Z,2018-04-05T05:23:10.448Z,2018-01-19T19:11:10.051Z,2017-12-19T02:08:00.120Z,2018-04-01T14:33:50.023Z,2018-01-28T06:55:08.118Z,2017-10-28T13:57:29.970Z,2017-10-07T16:39:57.549Z,2018-01-15T13:45:53.915Z,2017-12-10T02:41:27.209Z",,Cheese Pizza,Lombardos Pizzeria,98275,USD,0,25,WA
AVwcpauAkufWRAb5xfzw,2015-10-23T03:24:06Z,2019-03-26T06:44:32Z,1016 S Main St,"Restaurant,Pizza Place",Accommodation & Food Services,Weatherford,US,us/tx/weatherford/1016smainst/713667266,32.747276,-97.797806,,9.95,9.95,USD,2016-03-29T05:00:00.000Z,,Cheese Pizza,Nizza Pizza,76086,USD,0,25,TX
AVwcpauAkufWRAb5xfzw,2015-10-23T03:24:06Z,2019-03-26T06:44:32Z,1016 S Main St,"Restaurant,Pizza Place",Accommodation & Food Services,Weatherford,US,us/tx/weatherford/1016smainst/713667266,32.747276,-97.797806,,10.95,10.95,USD,"2018-01-19T09:14:41.701Z,2018-01-19T22:13:49.850Z,2018-01-18T18:17:46.832Z,2018-01-18T17:01:51.759Z",,Cheese Pizza,Nizza Pizza,76086,USD,0,25,TX
AVwcqoA0ByjofQCxg1po,2016-03-28T15:01:03Z,2019-03-26T06:13:34Z,1800 Euclid Ave,"Pizza,Restaurant,Pizza Place,Restaurants",Accommodation & Food Services,Cleveland,US,us/oh/cleveland/1800euclidave/-66705643,41.50112,-81.678693,,8.99,8.99,USD,2016-04-02T05:14:00.000Z,"Buy one Cheese Pizza, get one Cheese Pizza free",Cheese Pizza,Pizza Pan,44115,USD,0,25,OH
AVwcr9AjIN2L1WUfnxwj,2015-10-20T05:11:22Z,2019-03-26T06:12:17Z,1853 Richmond Ave,"Pizza,Restaurant,Pizza Place,Restaurants",Accommodation & Food Services,Houston,US,us/tx/houston/1853richmondave/-1213614705,29.734111,-95.406775,http://www.singlepage.com/texas-pizza-3,8.99,8.99,USD,"2018-01-20T02:41:46.945Z,2017-01-21T18:03:00.000Z",,Cheese Pizza,Texas Pizza,77098,USD,0,25,TX
AVwcvbSh_7pvs4fzydUv,2016-05-19T11:58:46Z,2019-03-21T08:09:11Z,2136 Colorado Blvd,"Pizza,Pizza Place,Restaurants",Accommodation & Food Services,Los Angeles,US,us/ca/losangeles/2136coloradoblvd/-232693596,34.139,-118.2133,,11.49,11.49,USD,"2018-02-26T20:32:46.780Z,2018-01-18T15:21:07.587Z,2018-01-22T01:54:43.917Z,2018-01-20T15:24:01.028Z,2018-01-19T12:02:39.238Z,2018-01-13T10:26:11.541Z",,Cheese Pizza,Big Mama's & Papa's Pizzeria,90041,USD,25,40,CA
AV1v3YQr3-Khe5l_O2MF,2017-07-23T14:32:54Z,2019-03-21T07:05:12Z,17817 Chatsworth St,"Pizza Place,Restaurants",Accommodation & Food Services,Granada Hills,US,us/ca/granadahills/17817chatsworthst/1747752794,34.2652,-118.5222,http://www.citysearch.com/profile/menu/45468466?singlePlatformId=numero-uno-6,5,5,USD,"2018-01-24T14:09:49.750Z,2018-01-21T22:53:34.772Z",,Cheese Pizza,Numero Uno,91344,USD,0,25,CA
AVwcuX1uIN2L1WUfoMC2,2016-03-21T00:10:38Z,2019-03-21T07:00:50Z,1101 Blanding Blvd,"Restaurant,Pizza Place,Restaurants",Accommodation & Food Services,Orange Park,US,us/fl/orangepark/1101blandingblvd/310427075,30.1311,-81.7836,,1.5,1.5,USD,"2018-04-11T18:42:10.968Z,2018-04-02T14:23:35.091Z,2018-06-07T11:10:13.405Z",extra toppings add  050 each,Cheese Pizza,Vitos Pizzeria,32065,USD,0,25,FL
AVwcuX1uIN2L1WUfoMC2,2016-03-21T00:10:38Z,2019-03-21T07:00:50Z,1101 Blanding Blvd,"Restaurant,Pizza Place,Restaurants",Accommodation & Food Services,Orange Park,US,us/fl/orangepark/1101blandingblvd/310427075,30.1311,-81.7836,,1.5,1.5,USD,"2018-02-27T11:15:03.808Z,2018-01-20T08:00:52.005Z,2018-01-19T16:57:12.402Z,2018-01-19T18:51:43.971Z,2018-01-18T15:38:21.174Z,2018-01-16T23:41:36.211Z,2017-12-16T15:21:47.686Z,2017-12-10T04:48:51.213Z,2017-10-29T12:45:24.488Z,2016-10-27T02:02:41Z,2016-03-21T00:10:38Z",,Cheese Pizza,Vitos Pizzeria,32065,USD,0,25,FL
AVwdSdbKByjofQCxnhyr,2016-05-03T09:16:41Z,2019-03-21T06:47:58Z,12430 Seal Beach Blvd,"Pizza,Restaurant,Chain Restaurant,Pizza Place,Restaurants",Accommodation & Food Services,Seal Beach,US,us/ca/sealbeach/12430sealbeachblvd/-695527346,33.7815,-118.0716,http://www.singlepage.com/zpizza-36,2.75,2.75,USD,"2016-05-03T09:16:41Z,2018-04-09T02:23:32.928Z,2018-02-27T01:03:21.158Z,2018-01-16T23:18:35.079Z,2018-01-20T05:54:30.894Z",,Cheese Pizza,Z Pizza,90740,USD,0,25,CA
AVwcnClr_7pvs4fzxBaU,2016-04-01T06:30:37Z,2019-03-21T05:16:22Z,17125 Conant St,"Restaurant,Pizza Place,Restaurants",Accommodation & Food Services,Hamtramck,US,us/mi/hamtramck/17125conantst/-281464261,42.419,-83.064,,6.49,6.49,USD,"2018-05-31T01:08:05.722Z,2018-04-16T01:21:59.620Z",,Cheese Pizza,Buddy's Pizza,48212,USD,25,40,MI
AVwcnClr_7pvs4fzxBaU,2016-04-01T06:30:37Z,2019-03-21T05:16:22Z,17125 Conant St,"Restaurant,Pizza Place,Restaurants",Accommodation & Food Services,Hamtramck,US,us/mi/hamtramck/17125conantst/-281464261,42.419,-83.064,,7.99,7.99,USD,"2018-01-21T18:05:50.994Z,2018-01-19T09:56:35.326Z,2018-01-18T23:51:38.585Z,2018-01-09T11:13:55.433Z,2017-12-04T22:20:27.464Z,2017-10-22T05:55:06.203Z,2017-10-03T19:57:54.856Z,2017-09-27T18:33:52.995Z,2016-04-01T06:30:37Z",,Cheese Pizza,Buddy's Pizza,48212,USD,25,40,MI
AVwd0tU5_7pvs4fz9lrK,2016-04-01T06:37:51Z,2019-03-21T05:05:39Z,1837 N Kinser Pike,"Pizza Place,Restaurants",Accommodation & Food Services,Bloomington,US,us/in/bloomington/1837nkinserpike/1643048877,39.1873,-86.5377,,4.99,4.99,USD,"2018-01-18T15:05:38.021Z,2018-01-18T22:28:58.890Z,2018-01-21T17:26:27.378Z,2018-01-10T16:26:31.237Z,2017-12-15T16:29:50.121Z,2017-12-08T01:51:13.407Z,2017-10-22T14:39:52.662Z",,Cheese Pizza,Aver's Pizza North/campus,47404,USD,0,25,IN
AVwc3RbZkufWRAb5z0az,2016-07-30T21:38:46Z,2019-03-09T12:36:30Z,324 Ferris St,"Italian Restaurant,Pizza Place",Accommodation & Food Services,Green Cove Springs,US,us/fl/greencovesprings/324ferrisst/1801412161,29.992076,-81.678813,,12.99,12.99,USD,"2018-01-27T19:50:36.976Z,2017-12-20T06:58:37.085Z,2018-01-20T17:30:10.069Z,2018-01-19T15:25:47.250Z,2018-04-05T18:26:53.644Z,2017-12-11T00:44:10.755Z,2017-10-29T00:20:33.916Z,2018-02-18T15:11:55.546Z,2016-07-30T21:38:46Z",,Cheese Pizza,DFontana,32043,USD,0,25,FL
AVwcjxv-kufWRAb5wgnz,2016-03-21T00:32:36Z,2019-03-08T07:12:13Z,8125 Lefferts Blvd,"Pizza,Restaurant,Pizza Place,Restaurants,Italian Restaurants",Accommodation & Food Services,Kew Gardens,US,us/ny/kewgardens/8125leffertsblvd/413421772,40.70887,-73.830499,,6.95,6.95,USD,2018-02-09T16:41:23.319Z,Freshly shredded cheese with our famous Singa39s pizza sauce 426 calories per serving 2 servings per 10ampquot pizza,Cheese Pizza,Singas Famous Pizza,11415,USD,0,25,NY
AVwc1nl-kufWRAb5zjFp,2015-06-30T19:10:33Z,2019-03-07T14:56:13Z,2305 Boonville Rd,"Restaurant,Pizza Place,Restaurants",Accommodation & Food Services,Bryan,US,us/tx/bryan/2305boonvillerd/1045531984,30.6735,-96.3353,http://www.citysearch.com/profile/menu/602595657?singlePlatformId=doubledaves-pizza-works-10,13.99,13.99,USD,2016-03-31T01:29:00.000Z,,Cheese Pizza,DoubleDave's Pizza Works,77808,USD,0,25,TX
AVwdH7fvIN2L1WUfscyO,2016-03-27T05:36:37Z,2019-03-04T13:35:18Z,601 S Chester Rd,Pizza Place,Accommodation & Food Services,Swarthmore,US,us/pa/swarthmore/601schesterrd/1256386986,39.891769,-75.3527,,6.5,6.5,USD,"2018-01-17T18:06:13.362Z,2018-01-19T18:18:25.091Z,2018-01-25T17:37:44.372Z,2018-01-24T00:30:06.852Z,2018-04-05T17:47:53.398Z,2017-12-11T02:53:37.684Z,2017-12-20T05:56:02.771Z",,Cheese Pizza,Swarthmore Pizza,19081,USD,0,25,PA
AVwcke36_7pvs4fzwkGJ,2016-03-26T04:34:05Z,2019-03-03T20:13:34Z,14034 Poway Rd,"Restaurant,Pizza Place",Accommodation & Food Services,Poway,US,us/ca/poway/14034powayrd/891491657,32.95677,-117.026954,,15,15,USD,"2018-01-19T23:59:44.058Z,2018-01-20T01:25:28.887Z,2018-01-18T23:33:38.437Z",,Cheese Pizza,Coney Island Pizzeria,92064,USD,0,25,CA
AVwcqodhByjofQCxg1vC,2016-03-26T04:33:59Z,2019-03-03T20:06:51Z,1325 Broadway,"Pizza,American restaurants,Pizza Place,Restaurants",Accommodation & Food Services,Boulder,US,us/co/boulder/1325broadway/273941150,40.01007,-105.277021,http://www.yellowpages.com/boulder-co/mip/cosmos-pizza-14897600/menu,11.75,11.75,USD,"2018-02-22T01:43:13.371Z,2018-02-16T20:52:59.009Z,2018-01-18T16:20:32.111Z,2018-01-25T14:44:55.694Z,2018-01-21T00:45:15.984Z,2018-01-20T18:54:19.060Z,2018-01-11T12:36:32.733Z,2017-10-21T23:07:00.000Z,2017-10-05T04:18:00.000Z",,Cheese Pizza,Cosmos Pizza,80302,USD,0,25,CO
AVzA-EQWFcQ3k02bBaJ8,2017-06-19T15:28:34Z,2019-03-03T06:31:10Z,801 Village Blvd Ste 306,"Pizza,Caterers,Pizza Place,Restaurants",Accommodation & Food Services,West Palm Beach,US,us/fl/westpalmbeach/801villageblvdste306/475870266,26.71365,-80.10205,,3,3,USD,"2018-01-20T02:59:45.009Z,2018-01-20T03:22:55.699Z,2018-01-20T04:32:28.578Z,2018-01-19T07:13:33.001Z,2017-12-15T12:59:33.116Z,2017-12-07T16:26:30.475Z",,Cheese Pizza,Amici Brick Oven Pizza,33409,USD,0,25,FL
AVwdIokdByjofQCxl2Qy,2016-03-25T03:01:58Z,2019-02-28T08:36:54Z,3700 Meachem Rd,"Pizza,Restaurant,Italian restaurants,Pizza Place,Restaurants",Accommodation & Food Services,Racine,US,us/wi/racine/3700meachemrd/1383577460,42.689,-87.8359,,6.45,6.45,USD,"2018-02-14T10:04:29.761Z,2018-01-19T22:15:06.544Z,2018-01-18T22:24:14.119Z,2018-01-20T02:28:12.590Z,2018-01-21T18:32:54.330Z,2017-12-21T01:14:00.000Z,2017-12-11T15:20:00.000Z,2016-10-29T16:09:00.000Z,2016-03-25T03:02:00.000Z",,Cheese Pizza,Ferraro's Pizza,53405,USD,0,25,WI
AVwd1sXlIN2L1WUfzq4D,2015-10-19T18:40:33Z,2019-02-23T09:51:23Z,64 S Mason St,"Pizza,Restaurant,Caterers,Pizza Place,Restaurants",Accommodation & Food Services,Harrisonburg,US,us/va/harrisonburg/64smasonst/-1301629246,38.4482,-78.8665,,4,4,USD,"2018-05-28T20:31:07.056Z,2018-05-22T08:55:29.453Z",,Cheese Pizza,Benny Sorrentino's,22801,USD,0,25,VA
AVwd3xxGIN2L1WUfz8dj,2015-10-23T00:47:29Z,2019-02-18T14:59:56Z,1207 Jamison Ave SE,Pizza Place,Accommodation & Food Services,Roanoke,US,us/va/roanoke/1207jamisonavese/-580490037,37.2702722,-79.9233505,,12.25,12.25,USD,2019-02-12T21:33:26.579Z,,Cheese Pizza,Emilio's Famous Pizza,24013,USD,1,20,VA
AVwdeQuNkufWRAb56QMp,2015-10-20T01:18:47Z,2019-02-03T02:05:02Z,5978 Zebulon Rd,"Pizza,Restaurant,Caterers,Pizza Place,Restaurants","Accommodation & Food Services,Management of Companies & Enterprises",Macon,US,us/ga/macon/5978zebulonrd/335912291,32.8798,-83.7563,http://www.citysearch.com/profile/menu/622136030?singlePlatformId=digiorgios-pizza,4.99,4.99,USD,2018-01-19T04:08:40.966Z,,Cheese Pizza,Macon Pizza Company,31210,USD,0,25,GA
AVwcyvSYByjofQCxiPVG,2015-10-23T22:23:09Z,2019-01-31T21:52:25Z,6014 Radio Rd,"Pizza Place Berkshire Lakes,Pizza Place,Restaurants",Accommodation & Food Services,Naples,US,us/fl/naples/6014radiord/-461982005,26.1539,-81.74,,15.55,15.55,USD,2016-04-02T05:22:00.000Z,,Cheese Pizza,Naples Pizza,34104,USD,0,25,FL
AVwch3FIkufWRAb5wKnz,2016-03-31T02:41:51Z,2019-01-27T06:27:39Z,10100 Shaver Rd,"Pizza,Restaurant,wich Place,Pizza Place,Sandwich Place,Restaurants",Accommodation & Food Services,Portage,US,us/mi/portage/10100shaverrd/383087624,42.1705,-85.61576,,4.52,4.52,USD,"2016-03-31T02:41:51Z,2016-06-20T15:51:27Z",,Cheese Pizza,Mancinos Pizza & Grinders,49024,USD,0,25,MI
AVwcxpLzIN2L1WUfoxQQ,2016-04-01T06:50:20Z,2019-01-26T09:56:26Z,2091 E Orangethorpe Ave,"Pizza,American Restaurants,Pizza Place,Restaurants",Accommodation & Food Services,Placentia,US,us/ca/placentia/2091eorangethorpeave/323727705,33.866934,-117.818884,,7.95,7.95,USD,"2016-04-01T06:50:00.000Z,2016-04-01T06:51:00.000Z","Our dough is made fresh daily with enriched flour, followed by our thick, rich pizza sauce mixed with our own special herbs and spices, then topped off with mozzarella cheese.",Cheese Pizza,Pizza Store,92870,USD,0,25,CA
AVwci0RC_7pvs4fzwRDd,2015-10-23T02:28:50Z,2019-01-24T20:39:44Z,1019 E Coliseum Blvd,"Pizza Place,Restaurants",Accommodation & Food Services,Fort Wayne,US,us/in/fortwayne/1019ecoliseumblvd/311575961,41.117934,-85.126237,,5.47,5.47,USD,"2018-01-18T13:40:40.474Z,2018-01-19T00:54:18.653Z",,Cheese Pizza,Pizza Forum,46805,USD,0,25,IN
AVwc6BmHByjofQCxje4i,2016-03-30T04:06:41Z,2019-01-21T10:17:01Z,8285 E Santa Ana Canyon Rd,"Restaurant,Pizza Place",Accommodation & Food Services,Anaheim,US,us/ca/anaheim/8285esantaanacanyonrd/1290313270,33.867874,-117.744221,,9.99,9.99,USD,"2018-05-07T07:04:01.728Z,2018-04-18T19:12:40.521Z,2018-05-13T04:38:22.085Z,2018-04-25T12:24:56.082Z,2018-06-26T10:04:48.142Z,2018-06-22T17:08:39.343Z",Toppings anchoviesampcomma artichoke heartsampcomma baconampcomma basilampcomma black olivesampcomma chickenampcomma cilantroampcomma fresh garlicampcomma fresh tomatoesampcomma green peppersampcomma ground beefampcomma hamampcomma jalapenosampcomma mushroomsampcomma pepperincinisampcomma pepperoniampcomma pineappleampcomma red onionsampcomma salamiampcomma sausageampcomma white onions All of our pizzas are made with our original pizza sauce BBQ or garlic ranch sauce is available Medium cheese each additional topping 135ampcomma large cheese each additional topping 165ampcomma xlg cheese each additional topping 175,Cheese Pizza,Porkys Pizza,92808,USD,0,25,CA
AVwdd4owByjofQCxpaKI,2016-03-31T02:32:11Z,2019-01-15T20:02:15Z,4307 Katonah Ave,"Pizza,Restaurant,Pizza Place,Restaurants",Accommodation & Food Services,Bronx,US,us/ny/bronx/4307katonahave/-864463061,40.898674,-73.86765,http://www.singlepage.com/katonah-pizza-and-pasta,12,12,USD,"2018-01-18T23:47:09.792Z,2018-01-18T23:47:09.806Z,2018-01-22T09:20:19.521Z,2018-01-22T09:20:19.525Z,2018-01-18T18:29:31.406Z,2018-01-18T18:29:31.411Z,2018-01-10T11:59:43.879Z,2018-01-10T11:59:43.889Z,2017-12-15T13:31:00.000Z,2017-12-06T13:37:00.000Z",,Cheese Pizza,Katonah Pizza & Pasta,10470,USD,0,25,NY
AVwdJ4vK_7pvs4fz20Pt,2016-03-28T06:00:36Z,2018-12-24T09:34:20Z,373 Waverly Ave,"Pizza,Restaurant,Pizza Place Clinton Hill,Pizza Place,Restaurants",Accommodation & Food Services,Brooklyn,US,us/ny/brooklyn/373waverlyave/-1935986707,40.686832,-73.96639,http://www.singlepage.com/marios-pizzeria-29,10,10,USD,"2017-10-07T17:16:32.478Z,2018-02-22T17:51:51.378Z,2018-01-15T18:13:15.875Z,2017-12-10T03:37:30.455Z,2018-04-05T06:01:05.174Z,2018-01-20T08:34:00.579Z,2017-12-19T05:01:59.717Z,2018-01-20T03:28:29.732Z,2017-10-28T16:17:49.185Z",,Cheese Pizza,Mario's Pizzeria,11238,USD,0,25,NY
AVwdBSkn_7pvs4fz1asF,2016-03-29T05:23:08Z,2018-12-23T06:33:20Z,1127 N Lawrence Expy,"Pizza,Restaurant,Italian restaurants,Pizza Place,Restaurants",Accommodation & Food Services,Sunnyvale,US,us/ca/sunnyvale/1127nlawrenceexpy/2091838752,37.39696,-121.995843,,19.5,19.5,USD,"2018-02-16T00:30:32.328Z,2018-01-28T05:00:51.278Z,2018-01-19T20:32:50.323Z,2018-01-20T15:08:46.285Z,2018-01-19T22:26:35.887Z,2018-01-10T04:11:00.877Z,2018-01-21T18:23:14.565Z,2016-06-08T16:17:54Z",,Cheese Pizza,Giovanni's Pizzeria,94089,USD,25,40,CA
AVzA1PiLLD2H7whiWFGF,2017-06-19T14:50:01Z,2018-12-21T05:52:12Z,135 W 116th St,"Pizza,Restaurant,Pizza Restaurants,Italian restaurants,Pizza Place,Restaurants",Accommodation & Food Services,New York,US,us/ny/newyork/135w116thst/-2056892275,40.802822,-73.951198,,13,13,USD,2018-06-06T02:20:56.722Z,Fresh mozzarella whipped ricotta Gorgonzola Pecorino basil and extra virgin olive oil,Cheese Pizza,Harlem Pizza Co,10026,USD,0,25,NY
AWEP-N_pa4HuVbedMvgj,2018-01-19T19:44:34Z,2018-12-19T10:57:43Z,32 College Rd,"Pizza,Take Out Restaurants,Pizza Place,Restaurants",Accommodation & Food Services,Fairbanks,US,us/ak/fairbanks/32collegerd/572757474,64.8505,-147.7024,,15.99,15.99,USD,"2018-01-20T21:00:41.520Z,2018-01-19T00:27:25.680Z,2018-01-19T00:27:25.681Z,2018-01-22T01:18:49.239Z,2018-01-19T09:37:35.930Z,2018-01-19T09:37:35.931Z",,Cheese Pizza,Papa John's Pizza,99701,USD,0,25,AK
AVzGEbDKLD2H7whiWYrQ,2017-06-20T15:14:27Z,2018-12-18T06:28:47Z,817 Tamiami Trl,"Restaurant,Pizza Place",Accommodation & Food Services,Bradenton,US,us/fl/bradenton/817tamiamitrl/1937392049,27.492279,-82.574907,,6.99,6.99,USD,"2018-01-21T15:06:40.421Z,2018-01-14T21:43:09.748Z,2018-02-12T19:31:31.370Z,2018-01-18T23:23:44.209Z,2018-01-20T15:45:40.740Z,2018-01-18T17:06:27.892Z,2017-12-18T17:36:22.053Z,2017-10-28T06:35:19.064Z,2018-04-08T12:30:46.194Z,2017-12-09T17:07:48.144Z",,Cheese Pizza,Ferraros Pizza And Restaurant,34205,USD,0,25,FL
AVwd1S-QkufWRAb59pbG,2016-07-06T20:29:23Z,2018-12-16T17:53:14Z,330 Palmetto Ave,"Restaurant,Pizza Place",Accommodation & Food Services,Pacifica,US,us/ca/pacifica/330palmettoave/1112396794,37.651844,-122.491104,,11,11,USD,"2018-04-06T12:45:28.404Z,2018-06-29T09:37:03.925Z",,Cheese Pizza,Papa Murphys,94044,USD,0,25,CA
AVzBESsu3D1zeR_xBGTB,2017-06-19T15:55:46Z,2018-12-13T14:03:42Z,4109 Penn Ave,"Pizza,Restaurant,Pizza Place,Restaurants",Accommodation & Food Services,Pittsburgh,US,us/pa/pittsburgh/4109pennave/-770538028,40.465784,-79.954839,,10,10,USD,"2018-02-15T10:37:42.854Z,2018-05-20T09:45:00.177Z,2018-04-08T08:23:15.272Z",,Cheese Pizza,Graziano's Pizzeria,15224,USD,0,25,PA
AVwdYonT_7pvs4fz5U7M,2016-03-25T02:53:35Z,2018-12-03T14:57:56Z,7141 S Eastern Ave,"Pizza,Restaurant,Pizza Restaurants,Fast Food,Pizza Place,Restaurants",Accommodation & Food Services,Las Vegas,US,us/nv/lasvegas/7141seasternave/330000776,36.059636,-115.119434,http://www.singlepage.com/round-table-pizza-230,5.69,5.69,USD,"2018-04-02T09:31:15.593Z,2018-02-02T10:25:34.631Z,2018-04-06T12:31:39.989Z,2018-04-19T09:13:09.799Z",,Cheese Pizza,Round Table Pizza,89119,USD,0,25,NV
AWE8meS9RxPSIh2RswHz,2018-01-28T11:47:30Z,2018-11-23T00:19:10Z,630 SW 153rd St # F,"Pizza,Pizza Place",Accommodation & Food Services,Seattle,US,us/wa/seattle/630sw153rdst#f/-1784907977,47.4659,-122.34306,,13.25,13.25,USD,"2018-02-27T01:04:25.238Z,2018-01-21T18:16:54.571Z",,Cheese Pizza,Bison Creek Pizza,98166-2260,USD,25,40,WA
AWE8meS9RxPSIh2RswHz,2018-01-28T11:47:30Z,2018-11-23T00:19:10Z,630 SW 153rd St # F,"Pizza,Pizza Place",Accommodation & Food Services,Seattle,US,us/wa/seattle/630sw153rdst#f/-1784907977,47.4659,-122.34306,,17,17,USD,"2018-02-27T01:04:25.237Z,2018-01-21T18:16:54.569Z",,Cheese Pizza,Bison Creek Pizza,98166-2260,USD,25,40,WA
AVwdSa8GkufWRAb54UP1,2016-04-02T05:25:40Z,2018-09-10T21:03:28Z,351 N 3rd St,Pizza Place,Accommodation & Food Services,Oxford,US,us/pa/oxford/351n3rdst/-47278504,39.79387,-75.976115,,10.75,10.75,USD,"2016-04-02T05:25:40Z,2016-10-11T05:19:06Z",,Cheese Pizza,Pats Pizza,19363,USD,0,25,PA
AVwc8n4qIN2L1WUfqoVy,2016-03-29T04:54:22Z,2018-09-10T21:02:46Z,110 N Lbj Dr,Pizza Place,Accommodation & Food Services,San Marcos,US,us/tx/sanmarcos/110nlbjdr/-2125129355,29.882507,-97.939917,,4.79,4.79,USD,"2017-10-28T23:39:57.496Z,2016-03-29T04:54:22Z,2016-06-14T01:52:39Z",,Cheese Pizza,Valentinos Pizza,78666,USD,0,25,TX
AWEhaku2a4HuVbedNDMd,2018-01-23T05:05:53Z,2018-07-19T20:57:47Z,29-24 30th Ave,"Pizza,Italian,Mexican,Pizza Place",Accommodation & Food Services,Astoria,US,us/ny/astoria/29-2430thave/778683388,40.767368,-73.922714,http://www.menupages.com/restaurants/salerno-pizza/menu,13,13,USD,"2018-07-16T02:25:40.985Z,2018-01-25T10:23:09.010Z,2018-07-13T21:02:39.239Z,2018-01-24T10:00:36.358Z,2018-07-11T14:39:25.732Z,2018-07-12T09:13:51.388Z,2018-07-12T17:46:20.529Z,2018-04-10T11:42:10.957Z,2018-05-20T12:04:06.338Z,2018-04-26T12:23:31.111Z,2018-07-10T02:33:28.899Z,2018-05-19T12:27:43.694Z,2018-01-22T10:41:18.164Z,2018-07-13T12:28:33.592Z,2018-07-16T10:20:59.113Z,2018-03-30T11:33:30.606Z,2018-04-23T13:16:37.217Z,2018-05-09T13:32:16.126Z,2018-07-14T07:22:20.714Z,2018-06-02T14:48:29.845Z,2018-07-15T00:21:13.497Z,2018-01-19T10:01:55.348Z",,Cheese Pizza,Salerno Pizza,11102,USD,0,25,NY
AVwdy_3zkufWRAb59VXd,2015-10-23T03:41:32Z,2018-07-19T20:45:05Z,1307 Myrtle Ave,"Pizza,Restaurant,Wings,Pizza Place",Accommodation & Food Services,Brooklyn,US,us/ny/brooklyn/1307myrtleave/1187558367,40.698128,-73.925081,http://www.menupages.com/restaurants/omg-pizzeria/menu,9.99,9.99,USD,"2017-11-17T11:01:33.209Z,2017-11-18T10:52:42.168Z,2017-11-21T10:22:51.611Z,2017-11-19T09:51:49.201Z,2017-11-22T10:28:16.555Z,2017-10-22T07:23:04.701Z,2017-10-19T14:27:04.176Z,2017-10-04T22:50:29.111Z",,Cheese Pizza,OMG Pizza,11221,USD,0,25,NY
AVzA0xan3D1zeR_xA_Il,2017-06-19T14:47:58Z,2018-07-19T09:41:28Z,413 8th Ave,"Pizza,Restaurant,Pizza Place",Accommodation & Food Services,New York,US,us/ny/newyork/4138thave/-1237411908,40.750052,-73.995007,http://www.menupages.com/restaurants/new-york-pizza-suprema/menu,30.98,30.98,USD,"2017-12-31T09:30:26.485Z,2018-07-13T20:51:38.463Z,2017-10-04T22:44:39.669Z,2018-07-16T02:15:38.935Z,2017-11-28T10:02:17.002Z,2017-11-22T09:58:46.625Z,2017-12-15T10:01:25.390Z,2018-07-14T06:34:26.391Z,2018-07-12T17:16:06.772Z,2018-07-11T14:30:35.724Z,2018-01-04T09:22:47.423Z,2017-12-20T09:51:53.001Z,2017-12-21T16:49:28.212Z,2017-11-29T10:11:40.728Z,2018-07-10T02:58:21.086Z,2017-11-26T09:32:05.503Z,2017-12-30T09:33:16.341Z,2017-11-30T10:40:49.400Z,2018-05-20T11:45:41.709Z,2017-12-19T09:42:44.353Z,2017-12-29T09:14:12.671Z,2018-04-23T13:04:01.266Z,2017-12-01T10:10:21.583Z,2017-11-25T09:14:20.583Z,2018-01-06T09:37:15.797Z,2018-01-24T09:58:57.237Z,2017-11-27T09:32:16.768Z,2017-12-18T08:54:21.471Z,2017-11-24T08:36:37.365Z,2017-11-23T09:50:53.324Z,2017-12-05T09:29:51.472Z,2018-07-15T09:38:26.954Z,2017-12-04T09:23:48.748Z,2017-12-11T09:26:04.308Z,2017-12-25T09:34:32.290Z,2017-12-08T10:05:51.089Z,2018-07-13T12:26:23.096Z,2017-10-19T14:11:20.644Z,2018-05-09T13:14:22.986Z,2017-12-23T10:01:47.590Z,2018-07-16T09:54:33.725Z,2018-01-02T09:08:20.955Z,2017-12-16T10:32:36.859Z,2018-06-02T14:31:51.395Z,2018-01-03T09:10:43.265Z,2017-12-24T09:46:39.737Z,2017-11-19T09:30:59.655Z,2017-12-13T09:16:56.028Z,2018-01-08T09:30:15.356Z,2017-12-27T09:30:13.363Z,2017-12-17T08:47:38.258Z,2018-04-10T11:26:28.883Z,2017-12-06T09:40:06.924Z,2017-12-10T09:53:13.898Z,2017-12-26T09:28:59.335Z,2017-11-18T10:26:52.511Z,2018-01-12T11:02:26.158Z,2018-04-26T12:12:58.907Z,2018-01-01T09:12:45.381Z,2017-12-12T09:25:29.930Z,2018-07-12T09:00:12.969Z,2017-12-07T10:05:29.381Z,2018-01-15T10:02:53.572Z,2018-01-07T09:29:11.849Z,2017-11-21T09:50:56.966Z,2017-12-14T09:42:04.313Z,2017-10-22T04:25:28.001Z,2018-01-25T10:20:24.411Z,2017-12-03T09:12:48.554Z,2018-05-19T12:20:41.574Z",,Cheese Pizza,New York Pizza Suprema,10001,USD,0,25,NY
AVzA0xan3D1zeR_xA_Il,2017-06-19T14:47:58Z,2018-07-19T09:41:28Z,413 8th Ave,"Pizza,Restaurant,Pizza Place",Accommodation & Food Services,New York,US,us/ny/newyork/4138thave/-1237411908,40.750052,-73.995007,http://www.menupages.com/restaurants/new-york-pizza-suprema/menu,27,27,USD,"2018-01-18T15:42:41.411Z,2018-01-19T01:47:32.153Z,2018-01-22T18:21:00.281Z,2018-01-11T07:14:39.410Z,2017-12-16T09:18:40.814Z,2017-12-08T06:46:40.023Z,2017-10-21T22:19:37.148Z",,Cheese Pizza,New York Pizza Suprema,10001,USD,0,25,NY
AVzoEpvS3D1zeR_xCYEs,2017-06-27T05:42:32Z,2018-07-19T09:41:27Z,965 Lexington Ave,"Pizza,Restaurant,Pizza Place",Accommodation & Food Services,New York,US,us/ny/newyork/965lexingtonave/1192367937,40.76915,-73.962822,http://www.menupages.com/restaurants/mariella-pizza-4/menu,11,11,USD,"2018-03-04T16:20:21.460Z,2018-01-19T23:32:40.880Z,2017-12-11T03:21:00.000Z,2017-10-29T05:27:00.000Z",,Cheese Pizza,Mariella Pizza,10021,USD,0,25,NY
AVzA1sTVFcQ3k02bBXlY,2017-06-19T14:51:59Z,2018-07-19T09:41:26Z,1140 1st Ave,"Pizza,Restaurant,Italian,Pizza Place",Accommodation & Food Services,New York,US,us/ny/newyork/11401stave/859758230,40.761803,-73.960159,http://www.menupages.com/restaurants/sutton-pizza-gyro/menu,13,13,USD,"2018-04-08T10:25:42.862Z,2018-05-29T15:52:43.586Z,2018-02-13T11:05:06.983Z,2018-05-03T07:45:22.673Z,2018-05-14T20:11:20.211Z,2018-02-03T20:19:21.353Z,2018-01-31T04:15:04.729Z,2018-05-24T07:45:55.135Z",,Cheese Pizza,Sutton Pizza and Gyro,10065,USD,0,25,NY
AV0BH9GWFcQ3k02bDmLF,2017-07-02T02:27:28Z,2018-07-03T11:00:07Z,1447 State Highway 248,"Restaurant,Pizza Place",Accommodation & Food Services,Branson,US,us/mo/branson/1447statehighway248/-175469459,36.662774,-93.240597,,14.99,14.99,USD,"2018-01-18T17:01:51.679Z,2018-01-19T15:38:58.636Z,2017-12-20T22:44:02.215Z,2017-12-11T13:14:48.270Z,2017-10-29T13:17:10.133Z",,Cheese Pizza,Luigi's Pizza Kitchen,65616,USD,0,25,MO
AVzd0JAlLD2H7whiXHUK,2017-06-25T05:54:12Z,2018-07-03T09:27:58Z,7512 W Hillsborough Ave,"Restaurant,Pizza Place",Accommodation & Food Services,Tampa,US,us/fl/tampa/7512whillsboroughave/1270894950,27.996336,-82.563664,,4.75,4.75,USD,"2018-04-06T20:03:19.604Z,2018-01-30T03:05:37.182Z,2018-04-21T05:29:14.865Z,2018-04-30T16:30:09.254Z,2018-05-12T17:30:26.392Z,2018-06-27T17:11:44.179Z",,Cheese Pizza,ABC Pizza,33615,USD,0,25,FL
AVzoFn2nLD2H7whiXiru,2017-06-27T05:46:47Z,2018-07-02T23:19:21Z,689 Parkway Plz,"Pizza,Restaurant,Italian,Chain Restaurant,Pizza Place",Accommodation & Food Services,El Cajon,US,us/ca/elcajon/689parkwayplz/-909106947,32.804533,-116.966542,,14,14,USD,"2018-07-01T15:33:38.109Z,2018-06-28T11:50:14.635Z",Served with hand stretched dough San Marzano style tomato sauce and whole milk mozzarella cheese,Cheese Pizza,Sbarro,92020,USD,0,25,CA
AVwdjL3vByjofQCxqNaP,2017-01-04T08:10:47Z,2018-07-02T23:16:38Z,3421 W William Cannon Dr,"Restaurant,Pizza Place",Accommodation & Food Services,Austin,US,us/tx/austin/3421wwilliamcannondr/1045531984,30.212961,-97.82944,,18.99,18.99,USD,2017-01-04T08:10:47Z,,Cheese Pizza,DoubleDave's Pizza Works,78745,USD,0,25,TX
AVwdFIWJ_7pvs4fz2Dk7,2016-03-29T05:10:43Z,2018-07-02T23:15:46Z,230 Glynn St N,"Restaurant,Pizza Place",Accommodation & Food Services,Fayetteville,US,us/ga/fayetteville/230glynnstn/539105163,33.451048,-84.455063,,1.99,1.99,USD,2016-03-29T05:11:00.000Z,,Cheese Pizza,Johnny's Pizza,30214,USD,0,25,GA
AVweRlqe_7pvs4fzBj09,2016-05-16T23:08:50Z,2018-07-02T23:14:37Z,500 Lakewood Center Mall,"Pizza,Restaurant,Italian,Pizza Place,Salad,Californian",Accommodation & Food Services,Lakewood,US,us/ca/lakewood/500lakewoodcentermall/-220003116,33.850455,-118.140378,http://www.singlepage.com/california-pizza-kitchen-279,12.49,12.49,USD,"2018-05-03T20:22:34.875Z,2018-05-21T09:14:17.657Z",,Cheese Pizza,California Pizza Kitchen,90712,USD,25,40,CA
AVzBGRKZFcQ3k02bBecq,2017-06-19T16:04:24Z,2018-07-02T23:14:35Z,11677 San Vicente Blvd,"Restaurant,Pizza Place",Accommodation & Food Services,Los Angeles,US,us/ca/losangeles/11677sanvicenteblvd/-220003116,34.054118,-118.46511,,12.69,12.69,USD,"2018-05-03T20:22:25.959Z,2018-05-21T09:14:07.065Z",,Cheese Pizza,California Pizza Kitchen,90049,USD,25,40,CA
AVyoGcEDl8hL2jjQyUHj,2017-06-14T19:34:39Z,2018-07-02T15:53:58Z,11740 San Vicente Blvd,"Restaurant,Pizza Place",Accommodation & Food Services,Los Angeles,US,us/ca/losangeles/11740sanvicenteblvd/1124900577,34.052925,-118.467013,,6.75,6.75,USD,"2018-06-29T17:30:00.019Z,2018-05-10T20:37:57.995Z,2018-01-31T04:47:55.705Z",Our cheese is topped with mozzarellaampcomma pizza sauce,Cheese Pizza,Fresh Brothers,90049,USD,0,25,CA
AVwdcX4XIN2L1WUfv4Tn,2015-10-23T02:43:30Z,2018-07-01T21:11:00Z,134 Main St,"Pizza,Restaurant,Pizza Place",Accommodation & Food Services,El Segundo,US,us/ca/elsegundo/134mainst/538725135,33.917359,-118.415554,,10.99,10.99,USD,"2018-05-14T19:24:20.612Z,2018-06-29T09:36:10.168Z",,Cheese Pizza,Andiamo Pizzeria,90245,USD,0,25,CA
AVwdIerO_7pvs4fz2lOb,2016-03-03T00:56:55Z,2018-07-01T12:50:36Z,835 Seven Hills Dr,"Restaurant,Pizza Place",Accommodation & Food Services,Henderson,US,us/nv/henderson/835sevenhillsdr/-1462444906,35.996804,-115.124244,,4.99,4.99,USD,"2018-04-25T17:53:23.308Z,2018-05-15T04:51:31.272Z,2018-05-07T07:18:47.714Z,2018-06-29T14:27:22.344Z",Authentic NY style brick oven pizza,Cheese Pizza,Angelina's Pizzeria,89052,USD,0,25,NV
AVwcqBOgkufWRAb5xlxk,2016-05-19T04:21:21Z,2018-07-01T12:50:11Z,208 N Market St,"Restaurant,Italian Restaurant,Pizza Place,Italian Restaurant and Pizza Place",Accommodation & Food Services,Dallas,US,us/tx/dallas/208nmarketst/-30083133,32.780666,-96.806166,,9.99,9.99,USD,"2018-04-26T12:01:30.312Z,2018-06-29T14:26:45.920Z,2018-01-30T08:03:58.467Z,2018-05-02T12:57:19.583Z",,Cheese Pizza,Dante's Italian Eatery,75202,USD,0,25,TX
AVzA04IA-gnIPe8DScBL,2017-06-19T14:48:25Z,2018-07-01T11:38:55Z,27661 Bouquet Canyon Rd,"Pizza,Restaurant,Pizza Place,Restaurants",Accommodation & Food Services,Santa Clarita,US,us/ca/santaclarita/27661bouquetcanyonrd/1197844752,34.443173,-118.510685,http://www.singlepage.com/lamppost-pizza-16,13.95,13.95,USD,"2018-05-04T15:43:34.463Z,2018-05-14T16:51:34.834Z,2018-06-26T17:03:53.401Z",,Cheese Pizza,Lamppost Pizza,91350,USD,0,25,CA
AVzBGeSG-gnIPe8DSjyJ,2017-06-19T16:05:18Z,2018-07-01T11:35:10Z,120 Arrow Ro Suite B,"Restaurant,wich Place,Pizza Place",Accommodation & Food Services,Hilton Head Island,US,us/sc/hiltonheadisland/120arrowrosuiteb/-1111207849,32.159378,-80.763185,,14,14,USD,"2018-01-19T00:25:44.277Z,2018-01-21T02:41:33.515Z,2017-12-15T15:58:38.714Z,2017-12-07T06:08:32.082Z,2017-10-22T14:21:41.976Z",,Cheese Pizza,Fat Baby's Pizza and Subs,29928,USD,0,25,SC
AVzBGeSG-gnIPe8DSjyJ,2017-06-19T16:05:18Z,2018-07-01T11:35:10Z,120 Arrow Ro Suite B,"Restaurant,wich Place,Pizza Place",Accommodation & Food Services,Hilton Head Island,US,us/sc/hiltonheadisland/120arrowrosuiteb/-1111207849,32.159378,-80.763185,,2.75,2.75,USD,"2018-01-19T00:25:44.277Z,2018-01-21T02:41:33.515Z,2017-12-15T15:58:38.714Z,2017-12-07T06:08:32.081Z,2017-10-22T14:21:41.976Z",,Cheese Pizza,Fat Baby's Pizza and Subs,29928,USD,0,25,SC
AVwej4TLIN2L1WUf6GGP,2016-03-29T04:54:05Z,2018-07-01T10:45:22Z,341 Clofton Dr,"Restaurant,Pizza Place",Accommodation & Food Services,Nashville,US,us/tn/nashville/341cloftondr/-1224852859,36.063827,-86.939213,,9.75,9.75,USD,"2018-02-02T03:21:55.181Z,2018-05-28T15:21:25.034Z,2018-06-27T17:51:07.396Z",12ampquot medampcomma 14ampquot lgampcomma 14ampquot xlg toppings 095ampcomma 125ampcomma 150ampcomma premium toppings 145ampcomma 200ampcomma 225ampcomma wheat 12ampquot med 125ampcomma16ampquot xlg 175,Cheese Pizza,Pizza Perfect,37221,USD,0,25,TN
AVwdXRad_7pvs4fz5G5I,2016-06-14T02:35:31Z,2018-06-30T18:47:44Z,5007 Pacific Coast Hwy,"Restaurant,Pizza Place",Accommodation & Food Services,Torrance,US,us/ca/torrance/5007pacificcoasthwy/1732194452,33.812763,-118.367578,,11.3,11.3,USD,"2018-03-31T01:44:26.812Z,2018-06-11T16:46:37.970Z,2018-02-02T01:02:49.682Z,2018-04-07T20:38:43.119Z,2018-05-29T15:24:46.723Z,2018-04-13T09:25:19.137Z",,Cheese Pizza,Jack's Pizza,90505,USD,0,25,CA
AVwcxjwNByjofQCxiDMX,2015-10-20T02:58:40Z,2018-06-30T05:03:50Z,1113 S Signal Butte Rd,"Pizza,Restaurant,Pizza Place",Accommodation & Food Services,Mesa,US,us/az/mesa/1113ssignalbutterd/-1836281467,33.3951,-111.597641,,5.75,5.75,USD,"2018-06-23T09:27:42.262Z,2018-06-12T12:02:59.903Z,2018-05-09T10:53:18.780Z",,Cheese Pizza,Barro's Pizza,85208,USD,25,40,AZ
AVwdD1tiIN2L1WUfrzKL,2015-07-12T18:35:43Z,2018-06-30T05:02:14Z,2711 S Alma School Rd,"Pizza,Restaurant,Italian,Pizza Place",Accommodation & Food Services,Mesa,US,us/az/mesa/2711salmaschoolrd/-1836281467,33.365251,-111.859094,http://www.singlepage.com/barros-pizza-4,5.75,5.75,USD,"2018-06-12T12:02:59.658Z,2018-05-09T10:53:18.204Z,2018-06-23T09:27:40.269Z",,Cheese Pizza,Barro's Pizza,85210,USD,25,40,AZ
AVwdqMhr_7pvs4fz8Ezj,2014-10-27T23:51:08Z,2018-06-30T05:02:14Z,1066 N Power Rd,"Restaurant,Pizza Place",Accommodation & Food Services,Mesa,US,us/az/mesa/1066npowerrd/-1836281467,33.435691,-111.684866,http://www.yellowpages.com/mesa-az/mip/barros-pizza-468211848/menu,5.75,5.75,USD,"2018-06-23T09:27:40.618Z,2018-06-12T12:03:05.539Z,2018-05-09T10:53:20.058Z",,Cheese Pizza,Barro's Pizza,85205,USD,0,25,AZ
AVzA1VVjLD2H7whiWFMI,2017-06-19T14:50:25Z,2018-06-29T19:34:53Z,6501 Kissena Blvd,"Restaurant,Pizza Place",Accommodation & Food Services,Flushing,US,us/ny/flushing/6501kissenablvd/-1686688850,40.737123,-73.814621,,11,11,USD,2017-10-28T05:42:18.795Z,,Cheese Pizza,Gino's Pizzeria,11367,USD,0,25,NY
AVz1eD3o3D1zeR_xC3YL,2017-06-29T20:08:37Z,2018-06-29T19:30:42Z,2815 36th Ave,"Restaurant,Pizza Place",Accommodation & Food Services,Astoria,US,us/ny/astoria/281536thave/324643360,40.757476,-73.931586,,16,11,USD,2017-10-30T03:23:00.000Z,,Cheese Pizza,One Stop Pizza,11106,USD,0,25,NY
AVz1eD3o3D1zeR_xC3YL,2017-06-29T20:08:37Z,2018-06-29T19:30:42Z,2815 36th Ave,"Restaurant,Pizza Place",Accommodation & Food Services,Astoria,US,us/ny/astoria/281536thave/324643360,40.757476,-73.931586,,8.5,8.5,USD,2017-10-30T03:23:00.000Z,,Cheese Pizza,One Stop Pizza,11106,USD,0,25,NY
AVzBCZ0X-gnIPe8DSiML,2017-06-19T15:47:31Z,2018-06-29T19:29:13Z,12562 SW 120th St,"Restaurant,Pizza Place",Accommodation & Food Services,Miami,US,us/fl/miami/12562sw120thst/628738348,25.656882,-80.390947,,15.99,9.99,USD,"2018-01-18T00:33:56.490Z,2017-12-19T16:18:42.864Z,2017-12-11T00:52:59.733Z,2017-10-29T13:23:34.910Z",,Cheese Pizza,Sir Pizza,33186,USD,0,25,FL
AVwcl6RuByjofQCxgAiF,2016-03-25T03:10:47Z,2018-06-29T19:24:16Z,14325 S La Grange Rd,"Restaurant,Pizza Place",Accommodation & Food Services,Orland Park,US,us/il/orlandpark/14325slagrangerd/-84989424,41.629927,-87.853794,,13.75,13.75,USD,"2018-05-19T22:36:05.115Z,2018-04-10T09:22:54.533Z,2018-04-29T18:32:04.098Z,2018-06-22T07:18:22.875Z,2018-04-05T11:34:45.539Z",,Cheese Pizza,Giordano's,60462,USD,0,25,IL
AVwcxVDV_7pvs4fzyyUx,2015-11-02T17:11:34Z,2018-06-28T00:15:18Z,2101 Fillmore St,"Restaurant,Pizza Place,Pizza Place Pacific Heights",Accommodation & Food Services,San Francisco,US,us/ca/sanfrancisco/2101fillmorest/2056789765,37.788934,-122.433821,,9,9,USD,2018-06-23T10:02:47.519Z,,Cheese Pizza,Dino and Santino's Pizza,94115,USD,25,40,CA
AVwcxVDV_7pvs4fzyyUx,2015-11-02T17:11:34Z,2018-06-28T00:15:18Z,2101 Fillmore St,"Restaurant,Pizza Place,Pizza Place Pacific Heights",Accommodation & Food Services,San Francisco,US,us/ca/sanfrancisco/2101fillmorest/2056789765,37.788934,-122.433821,,9,9,USD,"2018-02-26T12:19:45.162Z,2018-01-25T06:44:31.168Z,2018-01-22T10:37:47.532Z,2018-01-22T04:15:22.797Z,2018-01-11T13:36:10.888Z",,Cheese Pizza,Dino and Santino's Pizza,94115,USD,25,40,CA
AVweLkpCByjofQCxv-fe,2016-03-29T04:43:59Z,2018-06-28T00:14:55Z,288 Main St,"Pizza,Restaurant,Pizza Place,Restaurants",Accommodation & Food Services,Pleasanton,US,us/ca/pleasanton/288mainst/47981460,37.65845,-121.876751,,15.5,15.5,USD,"2018-06-06T23:00:48.882Z,2018-06-23T10:01:59.921Z,2018-04-09T01:10:42.888Z",,Cheese Pizza,Gay Nineties Pizza,94566,USD,25,40,CA
AVzBGhh0-gnIPe8DSj0G,2017-06-19T16:05:31Z,2018-06-27T03:24:21Z,3911 Peachtree Dr,"Pizza,Bar,Brick Pizza Oven,Pizza Place,Restaurants",Accommodation & Food Services,Columbia,US,us/mo/columbia/3911peachtreedr/-2138002265,38.90672,-92.33765,,9.25,9.25,USD,"2018-01-28T05:16:07.219Z,2018-01-19T09:57:48.583Z,2018-01-18T14:08:27.687Z,2018-01-18T18:06:57.044Z,2018-01-19T18:45:00.435Z,2018-01-10T02:35:57.086Z,2017-12-14T14:31:58.468Z,2017-12-05T01:07:13.686Z,2017-09-27T20:17:28.484Z",,Cheese Pizza,Shakespeare's Pizza,65203-3700,USD,25,40,MO
AVwc_Ov6kufWRAb51IFq,2016-03-21T00:14:42Z,2018-06-20T07:41:00Z,11651 Artesia Blvd,"Restaurant,Pizza Place",Accommodation & Food Services,Artesia,US,us/ca/artesia/11651artesiablvd/787075100,33.873432,-118.08536,,14,10,USD,"2018-01-20T17:29:53.651Z,2018-01-19T05:19:59.215Z,2018-01-14T21:34:17.954Z,2016-03-21T00:15:00.000Z,2016-05-19T13:34:00.000Z",,Cheese Pizza,Julio's Pizza,90701,USD,0,25,CA
AVwc_Ov6kufWRAb51IFq,2016-03-21T00:14:42Z,2018-06-20T07:41:00Z,11651 Artesia Blvd,"Restaurant,Pizza Place",Accommodation & Food Services,Artesia,US,us/ca/artesia/11651artesiablvd/787075100,33.873432,-118.08536,,10,10,USD,2018-06-09T17:56:53.666Z,,Cheese Pizza,Julio's Pizza,90701,USD,0,25,CA
AVwc-UVmkufWRAb50-Zk,2016-04-05T03:14:03Z,2018-06-19T02:11:26Z,4152 E Blue Grass Rd,"Restaurant,Pizza Place",Accommodation & Food Services,Mount Pleasant,US,us/mi/mountpleasant/4152ebluegrassrd/1464396994,43.57533,-84.762901,,5,5,USD,"2016-04-05T03:14:00.000Z,2016-07-06T20:34:00.000Z","Add pepperoni for free, other toppings come at additional cost",Cheese Pizza,Mancino's Italian Eatery,48858,USD,0,25,MI
AVzTb4wxFcQ3k02bBzzJ,2017-06-23T05:32:01Z,2018-06-18T06:46:18Z,3106 42nd St,"Pizza,Restaurant,Pizza Place",Accommodation & Food Services,Astoria,US,us/ny/astoria/310642ndst/-419087985,40.760503,-73.915634,http://www.singlepage.com/piazza-pizza-10,13,13,USD,"2018-04-14T06:55:38.563Z,2018-06-16T19:03:25.138Z,2018-05-07T11:37:08.671Z,2018-01-30T00:00:08.068Z,2018-04-11T20:15:33.497Z",,Cheese Pizza,Piazza Pizza,11103,USD,0,25,NY
AVwdhIgPIN2L1WUfwmVD,2016-05-19T11:39:24Z,2018-06-17T23:20:03Z,6440 N MacArthur Blvd,"Restaurant,Pizza Place",Accommodation & Food Services,Irving,US,us/tx/irving/6440nmacarthurblvd/-1812754166,32.896774,-96.958238,,5.99,5.99,USD,"2018-06-13T19:03:59.550Z,2018-05-28T15:21:10.237Z",Made with 100 whole milk mozzarella,Cheese Pizza,Pie Five Pizza Co.,75039,USD,0,25,TX
AVwdRGuzIN2L1WUfuA0O,2016-03-25T03:10:32Z,2018-06-16T17:26:27Z,5099 Mission St,"Restaurant,Pizza Place",Accommodation & Food Services,San Francisco,US,us/ca/sanfrancisco/5099missionst/696279183,37.717244,-122.440415,,17.99,17.99,USD,"2018-02-23T08:51:50.951Z,2018-01-23T20:58:45.052Z,2018-01-19T21:18:05.940Z,2018-01-16T05:09:48.308Z,2016-03-25T03:11:00.000Z",,Cheese Pizza,Roma Pizzeria,94112,USD,0,25,CA
AVwdRGuzIN2L1WUfuA0O,2016-03-25T03:10:32Z,2018-06-16T17:26:27Z,5099 Mission St,"Restaurant,Pizza Place",Accommodation & Food Services,San Francisco,US,us/ca/sanfrancisco/5099missionst/696279183,37.717244,-122.440415,,10.99,10.99,USD,"2018-02-23T08:51:50.949Z,2018-01-23T20:58:45.050Z,2018-01-19T21:18:05.939Z,2018-01-16T05:09:48.307Z",,Cheese Pizza,Roma Pizzeria,94112,USD,0,25,CA
AVwdRGuzIN2L1WUfuA0O,2016-03-25T03:10:32Z,2018-06-16T17:26:27Z,5099 Mission St,"Restaurant,Pizza Place",Accommodation & Food Services,San Francisco,US,us/ca/sanfrancisco/5099missionst/696279183,37.717244,-122.440415,,13.99,13.99,USD,"2018-02-23T08:51:50.950Z,2018-01-23T20:58:45.051Z,2018-01-19T21:18:05.940Z,2018-01-16T05:09:48.308Z",,Cheese Pizza,Roma Pizzeria,94112,USD,0,25,CA
AWEKcl99IxWefVJwxA96,2018-01-18T17:57:35Z,2018-06-15T21:36:45Z,2600 Ardmore Blvd,"Restaurant,Pizza Place",Accommodation & Food Services,Pittsburgh,US,us/pa/pittsburgh/2600ardmoreblvd/-1055723171,40.4108,-79.8442,,6.99,6.99,USD,"2018-06-12T12:03:48.914Z,2018-01-28T18:53:53.587Z,2018-02-02T08:25:50.620Z",,Cheese Pizza,Domino's Pizza,15221,USD,0,25,PA
AVzBE-caFcQ3k02bBeC7,2017-06-19T15:58:46Z,2018-06-15T21:34:14Z,6133 South Alameda St,"Restaurant,Pizza Place",Accommodation & Food Services,Corpus Christi,US,us/tx/corpuschristi/6133southalamedast/323714313,27.718476,-97.334321,,5.5,5.5,USD,"2018-04-28T00:25:09.484Z,2018-04-07T00:14:32.896Z,2018-01-29T19:36:34.045Z,2018-05-21T16:15:59.707Z,2018-06-05T19:19:22.474Z",,Cheese Pizza,Pizza State,78412,USD,0,25,TX
AVwcplKOByjofQCxgqIB,2016-07-10T23:36:19Z,2018-06-12T16:07:43Z,3400 E Hebron Pkwy,"Restaurant,Pizza Place",Accommodation & Food Services,Carrollton,US,us/tx/carrollton/3400ehebronpkwy/-1812754166,33.025489,-96.842623,,5.99,5.99,USD,"2018-05-22T08:39:00.409Z,2018-05-11T18:16:22.778Z",Made with 100 whole milk mozzarella,Cheese Pizza,Pie Five Pizza Co,75010,USD,0,25,TX
AVweWsbqIN2L1WUf4L6R,2016-04-26T07:46:09Z,2018-06-08T00:44:21Z,352 Malcolm X Blvd,"Restaurant,Pizza Place and Caf Bedford-Stuyvesant,Caf,Pizza Place",Accommodation & Food Services,Brooklyn,US,us/ny/brooklyn/352malcolmxblvd/-286939348,40.680796,-73.928618,,10,10,USD,"2018-02-02T22:01:09.925Z,2018-02-05T04:42:06.475Z,2018-06-06T01:12:21.588Z,2018-02-15T02:00:50.576Z,2018-04-26T04:12:40.291Z",,Cheese Pizza,Daddy Greens,11233,USD,0,25,NY
AVwdAZUm_7pvs4fz1RXk,2015-10-19T17:17:28Z,2018-06-08T00:23:08Z,4475 Roswell Rd,"Restaurant,Pizza Place",Accommodation & Food Services,Marietta,US,us/ga/marietta/4475roswellrd/348880352,33.987059,-84.421051,,4.95,4.95,USD,"2016-07-10T23:42:00.000Z,2016-05-27T13:24:00.000Z",,Cheese Pizza,Brixx Wood Fired Pizza,30062,USD,25,40,GA
AVwdYVQJ_7pvs4fz5RsQ,2016-03-26T04:18:23Z,2018-06-05T13:09:18Z,730 Kains Ave,"Restaurant,Pizza Place",Accommodation & Food Services,San Bruno,US,us/ca/sanbruno/730kainsave/330000776,37.627263,-122.416545,,5.09,5.09,USD,"2018-04-02T09:50:27.538Z,2018-04-06T12:21:32.409Z,2018-06-04T13:44:54.086Z,2018-05-04T04:34:53.261Z",,Cheese Pizza,Round Table Pizza,94066,USD,0,25,CA
AVwdY7zBIN2L1WUfvTwJ,2016-06-13T00:07:28Z,2018-06-01T23:53:01Z,950 E Riggs Rd,"Pizza,Restaurant,American restaurants,Pizza Place,Restaurants",Accommodation & Food Services,Chandler,US,us/az/chandler/950eriggsrd/-1836281467,33.220435,-111.824894,http://www.yellowpages.com/chandler-az/mip/pizza-factory-16351684/menu,5.75,5.75,USD,"2018-05-13T05:17:25.449Z,2018-05-07T13:08:59.773Z,2018-05-26T16:33:49.289Z",,Cheese Pizza,Barro's Pizza,85249,USD,0,25,AZ
AV1TsqdfLD2H7whiaO9y,2017-07-18T03:16:43Z,2018-06-01T09:19:31Z,627 Hoffner Ave,"Restaurant,Pizza Place",Accommodation & Food Services,Orlando,US,us/fl/orlando/627hoffnerave/618655359,28.475377,-81.369132,,6.95,6.95,USD,"2018-05-14T19:18:23.812Z,2018-05-01T01:09:48.979Z,2018-04-14T02:53:48.753Z",With Stone Fired Pizzaampaposs awesome fresh tomato sauce,Cheese Pizza,Stone Fired Pizza,32809,USD,0,25,FL
